"Time","D10A time","D10A pitch","D10A roll","D10A hdg","D10A IAS","D10A alt","D10A turn_rate","D10A Ny","D10A Nz","D10A aoa","EIS_4000 eng_rpm","EIS_4000 cht_1","EIS_4000 cht_2","EIS_4000 cht_3","EIS_4000 cht_4","EIS_4000 cht_5","EIS_4000 cht_6","EIS_4000 egt_1","EIS_4000 egt_2","EIS_4000 egt_3","EIS_4000 egt_4","EIS_4000 egt_5","EIS_4000 egt_6","EIS_4000 airspeed","EIS_4000 alt","EIS_4000 voltage","EIS_4000 fuel_flow","EIS_4000 unit_temp","EIS_4000 carb","EIS_4000 vert_spd","EIS_4000 oat","EIS_4000 oil_temp","EIS_4000 oil_press","EIS_4000 coolant_temp","EIS_4000 hour_meter","EIS_4000 fuel_totalizer","EIS_4000 flight_time","EIS_4000 time_till_empty","EIS_4000 baro","EIS_4000 mag_heading","EIS_4000 DAUX1","EIS_4000 DAUX2","EIS_4000 AUX1","EIS_4000 AUX2","EIS_4000 AUX3","EIS_4000 AUX4","EIS_4000 checksum","GNS430 alt","GNS430 lat","GNS430 long","GNS430 track","GNS430 grd spd","GNS430 dist_wpt","GNS430 xtrack_err","GNS430 des_track","GNS430 wpt_id","GNS430 wpt_brg","GNS430 mag_var","GNS430 nav_valid","GNS430 warn_stat","GNS430 dist_dest"
"MM/DD/YY hh:mm:ss.000","hh:mm:ss.sss","deg","deg","deg","kt","ft","deg/s","g","g","%stall angle","rpm","Deg F","Deg F","Deg F","Deg F","Deg F","Deg F","Deg F","Deg F","Deg F","Deg F","Deg F","Deg F","Knots","Feet","Volts","GPH","Deg F","Deg F","Ft / min","Deg F","Deg F","PSIG","Deg F","HH:MM:SS","Gals","HH:MM:SS","HH:MM:SS","Inch HG","Deg","","","in HG","","","","","ft","Degrees","Degrees","Degrees","knots","Miles","Miles","Degrees","","Degrees","Degrees","","","nm"
09/24/2005 11:36:40.993, NaN, NaN, NaN, NaN, NaN, NaN, NaN, NaN, NaN, NaN, NaN, NaN, NaN, NaN, NaN, NaN, NaN, NaN, NaN, NaN, NaN, NaN, NaN, NaN, NaN, NaN, NaN, NaN, NaN, NaN, NaN, NaN, NaN, NaN, NaN, NaN, NaN, NaN, NaN, NaN, NaN, NaN, NaN, NaN, NaN, NaN, NaN, -----, 0, 0, ---, ---, -----, NaN, ----, -----, ----, W 14.1, N, ---------, ------
09/24/2005 11:36:41.999, NaN, NaN, NaN, NaN, NaN, NaN, NaN, NaN, NaN, NaN, NaN, NaN, NaN, NaN, NaN, NaN, NaN, NaN, NaN, NaN, NaN, NaN, NaN, NaN, NaN, NaN, NaN, NaN, NaN, NaN, NaN, NaN, NaN, NaN, NaN, NaN, NaN, NaN, NaN, NaN, NaN, NaN, NaN, NaN, NaN, NaN, NaN, -----, 0, 0, ---, ---, -----, NaN, ----, -----, ----, W 14.1, N, ---------, ------
09/24/2005 11:36:43.000, NaN, NaN, NaN, NaN, NaN, NaN, NaN, NaN, NaN, NaN, NaN, NaN, NaN, NaN, NaN, NaN, NaN, NaN, NaN, NaN, NaN, NaN, NaN, NaN, NaN, NaN, NaN, NaN, NaN, NaN, NaN, NaN, NaN, NaN, NaN, NaN, NaN, NaN, NaN, NaN, NaN, NaN, NaN, NaN, NaN, NaN, NaN, -----, 0, 0, ---, ---, -----, NaN, ----, -----, ----, W 14.1, N, ---------, ------
09/24/2005 11:36:44.012, NaN, NaN, NaN, NaN, NaN, NaN, NaN, NaN, NaN, NaN, NaN, NaN, NaN, NaN, NaN, NaN, NaN, NaN, NaN, NaN, NaN, NaN, NaN, NaN, NaN, NaN, NaN, NaN, NaN, NaN, NaN, NaN, NaN, NaN, NaN, NaN, NaN, NaN, NaN, NaN, NaN, NaN, NaN, NaN, NaN, NaN, NaN, -----, 0, 0, ---, ---, -----, NaN, ----, -----, ----, W 14.1, N, ---------, ------
09/24/2005 11:36:45.013, NaN, NaN, NaN, NaN, NaN, NaN, NaN, NaN, NaN, NaN, NaN, NaN, NaN, NaN, NaN, NaN, NaN, NaN, NaN, NaN, NaN, NaN, NaN, NaN, NaN, NaN, NaN, NaN, NaN, NaN, NaN, NaN, NaN, NaN, NaN, NaN, NaN, NaN, NaN, NaN, NaN, NaN, NaN, NaN, NaN, NaN, NaN, -----, 0, 0, ---, ---, -----, NaN, ----, -----, ----, W 14.1, N, ---------, ------
09/24/2005 11:36:46.014, NaN, NaN, NaN, NaN, NaN, NaN, NaN, NaN, NaN, NaN, NaN, NaN, NaN, NaN, NaN, NaN, NaN, NaN, NaN, NaN, NaN, NaN, NaN, NaN, NaN, NaN, NaN, NaN, NaN, NaN, NaN, NaN, NaN, NaN, NaN, NaN, NaN, NaN, NaN, NaN, NaN, NaN, NaN, NaN, NaN, NaN, NaN, -----, 0, 0, ---, ---, -----, NaN, ----, -----, ----, W 14.1, N, ---------, ------
09/24/2005 11:36:47.016, NaN, NaN, NaN, NaN, NaN, NaN, NaN, NaN, NaN, NaN, NaN, NaN, NaN, NaN, NaN, NaN, NaN, NaN, NaN, NaN, NaN, NaN, NaN, NaN, NaN, NaN, NaN, NaN, NaN, NaN, NaN, NaN, NaN, NaN, NaN, NaN, NaN, NaN, NaN, NaN, NaN, NaN, NaN, NaN, NaN, NaN, NaN, -----, 0, 0, ---, ---, -----, NaN, ----, -----, ----, W 14.1, N, ---------, ------
09/24/2005 11:36:48.019, NaN, NaN, NaN, NaN, NaN, NaN, NaN, NaN, NaN, NaN, NaN, NaN, NaN, NaN, NaN, NaN, NaN, NaN, NaN, NaN, NaN, NaN, NaN, NaN, NaN, NaN, NaN, NaN, NaN, NaN, NaN, NaN, NaN, NaN, NaN, NaN, NaN, NaN, NaN, NaN, NaN, NaN, NaN, NaN, NaN, NaN, NaN, -----, 0, 0, ---, ---, -----, NaN, ----, -----, ----, W 14.1, N, ---------, ------
09/24/2005 11:36:49.028, 15:13:2.71875, 0, 0, 000, 0, -1197.5066, 0, -0, -0, 00, NaN, NaN, NaN, NaN, NaN, NaN, NaN, NaN, NaN, NaN, NaN, NaN, NaN, NaN, NaN, NaN, NaN, NaN, NaN, NaN, NaN, NaN, NaN, NaN, NaN, NaN, NaN, NaN, NaN, NaN, NaN, NaN, NaN, NaN, NaN, NaN, NaN, -----, 0, 0, ---, ---, -----, NaN, ----, -----, ----, W 14.1, N, ---------, ------
09/24/2005 11:36:50.030, 15:13:2.03125, 0, 0, 000, 0, -1197.5066, 0, 0.02, 1, 00, NaN, NaN, NaN, NaN, NaN, NaN, NaN, NaN, NaN, NaN, NaN, NaN, NaN, NaN, NaN, NaN, NaN, NaN, NaN, NaN, NaN, NaN, NaN, NaN, NaN, NaN, NaN, NaN, NaN, NaN, NaN, NaN, NaN, NaN, NaN, NaN, NaN, -----, 0, 0, ---, ---, -----, NaN, ----, -----, ----, W 14.1, N, ---------, ------
09/24/2005 11:36:51.036, 15:13:2.328125, 9.9, 1, 305, 0, 170.60368, 0, 0.02, 1, 99, 0, 0, 0, 0, 0, 0, 0, 0, 0, 0, 0, 17, 20, 0, 0, 0, 0, 0, 0, 0, 0, 0, 0, 0, 0, 0, 0:0:0, 0:0:00, 0, 0, 0, 0, 0, 0, 0, 0, NaN, -----, 0, 0, ---, ---, -----, NaN, ----, -----, ----, W 14.1, N, ---------, ------
09/24/2005 11:36:52.038, 15:38:14.625, 10.2, 1, 305, 0, 170.60368, 0.1, 0.02, 1, 99, 0, 0, 0, 0, 0, 0, 0, 0, 0, 0, 0, 1, 1, 0, 0, 4.8, 0, 0, -28, 0, -28, 0, 0, 0, 0, 0, 0:0:0, 0:0:00, 0, 0, 123, 513, 10.5, 0, 0, 0, NaN, -----, 0, 0, ---, ---, -----, NaN, ----, -----, ----, W 14.1, N, ---------, ------
09/24/2005 11:36:53.041, 15:38:14.921875, 10.4, 1, 306, 0, 170.60368, 0.2, 0.02, 1, 99, 0, 0, 0, 0, 0, 0, 0, 0, 0, 0, 0, 1, 1, 0, 0, 7.6, 0, 3, -28, 0, -28, 5, 0, 4, 0, 0, 0:0:0, 0:0:00, 0, 0, 205, 828, 17.2, 0, 0, 0, NaN, -----, 0, 0, ---, ---, -----, NaN, ----, -----, ----, W 14.1, N, ---------, ------
09/24/2005 11:36:54.045, 15:38:15.234375, 10.5, 1, 306, 0, 170.60368, 0.2, 0.02, 1, 99, 0, 0, 0, 0, 0, 0, 0, 2, 2, 2, 1, 2, 2, 0, 0, 9, 0, 8, -28, 0, -28, 9, 0, 8, 0, 0, 0:0:0, 0:0:00, 0, 0, 248, 975, 21, 0, 0, 10, NaN, -----, 0, 0, ---, ---, -----, NaN, ----, -----, ----, W 14.1, N, ---------, ------
09/24/2005 11:36:55.045, 15:38:15.53125, 10.6, 1.1, 306, 0, 167.32284, 0.3, 0.02, 1, 99, 0, 0, 0, 0, 0, 1, 1, 5, 5, 5, 5, 5, 5, 0, 0, 10.1, 0, 11, -28, 0, -28, 13, 0, 11, 0, 0, 0:0:0, 0:0:00, 0, 0, 278, 1099, 24.4, 0, 0, 27, NaN, -----, 0, 0, ---, ---, -----, NaN, ----, -----, ----, W 14.1, N, ---------, ------
09/24/2005 11:36:56.050, 15:38:15.828125, 10.6, 1.1, 306, 0, 170.60368, 0.3, 0.02, 1, 99, 0, 3, 0, 0, 0, 5, 5, 7, 7, 7, 7, 8, 8, 0, 0, 10.7, 0, 13, -28, 0, -28, 15, 0, 13, 0, 0, 0:0:0, 0:0:00, 0, 0, 291, 1171, 26.5, 0, 0, 37, NaN, -----, 0, 0, ---, ---, -----, NaN, ----, -----, ----, W 14.1, N, ---------, ------
09/24/2005 11:36:57.110, 15:38:16.8125, 10.7, 1.1, 306, 0, 170.60368, 0.4, 0.02, 1, 99, 0, 6, 3, 3, 3, 8, 7, 8, 9, 9, 8, 9, 9, 0, 0, 11.1, 0, 15, -28, 0, -28, 16, 0, 14, 0, 0, 0:0:0, 0:0:00, 0, 0, 304, 1214, 27.8, 0, 0, 44, NaN, -----, 0, 0, ---, ---, -----, NaN, ----, -----, ----, W 14.1, N, ---------, ------
09/24/2005 11:36:58.052, 15:38:17.8125, 10.6, 1.1, 306, 0, 167.32284, 0.4, 0.02, 1, 99, 0, 8, 5, 5, 4, 9, 9, 9, 10, 9, 9, 10, 10, 0, 0, 11.3, 0, 15, -28, 0, -28, 16, 0, 14, 0, 0, 0:0:0, 0:0:00, 0, 0, 312, 1239, 28.5, 0, 0, 47, NaN, -----, 0, 0, ---, ---, -----, NaN, ----, -----, ----, W 14.1, N, ---------, ------
09/24/2005 11:36:59.111, 15:38:18.5625, 10.6, 1.1, 306, 0, 170.60368, 0.4, 0.02, 1, 99, 0, 9, 5, 5, 5, 9, 9, 10, 10, 10, 9, 10, 11, 0, 0, 11.4, 0, 16, -28, 0, -28, 17, 0, 15, 0, 0, 0:0:0, 0:0:00, 0, 0, 315, 1247, 28.8, 0, 0, 48, NaN, -----, 0, 0, ---, ---, -----, NaN, ----, -----, ----, W 14.1, N, ---------, ------
09/24/2005 11:37:0.111, 15:38:19.5625, 10.5, 1.1, 306, 0, 170.60368, 0.4, 0.02, 1, 99, 0, 9, 6, 6, 6, 10, 10, 10, 10, 10, 9, 10, 11, 0, 0, 11.5, 0, 16, -28, 0, -28, 17, 0, 15, 0, 0, 0:0:0, 0:0:00, 0, 0, 322, 1258, 29.1, 0, 0, 49, NaN, -----, 0, 0, ---, ---, -----, NaN, ----, -----, ----, W 14.1, N, ---------, ------
09/24/2005 11:37:1.112, 15:38:20.578125, 10.4, 1.1, 306, 0, 167.32284, 0.3, 0.02, 1, 99, 0, 9, 6, 6, 6, 10, 10, 10, 10, 10, 10, 11, 11, 0, 0, 11.5, 0, 16, -28, 0, -28, 16, 0, 15, 0, 0, 0:0:0, 0:0:00, 0, 0, 317, 1265, 29.3, 0, 0, 50, NaN, -----, 0, 0, ---, ---, -----, NaN, ----, -----, ----, W 14.1, N, ---------, ------
09/24/2005 11:37:2.112, 15:38:21.578125, 10.6, 1.1, 306, 0, 164.042, 0.3, 0.02, 1, 99, 0, 10, 12, 14, 16, 11, 11, 11, 11, 11, 10, 11, 12, 0, 0, 11.6, 0, 16, -28, 0, -28, 16, 0, 15, 0, 0, 0:0:0, 0:0:00, 0, 0, 319, 1269, 29.5, 0, 0, 51, NaN, -----, 0, 0, ---, ---, -----, NaN, ----, -----, ----, W 14.1, N, ---------, ------
09/24/2005 11:37:3.113, 15:38:22.59375, 10.6, 1.1, 306, 0, 164.042, 0.3, 0.02, 1, 99, 0, 10, 12, 14, 16, 11, 11, 11, 11, 11, 10, 12, 12, 0, 0, 11.6, 0, 16, -28, 0, -28, 17, 0, 15, 0, 0, 0:0:0, 0:0:00, 0, 0, 320, 1271, 29.6, 0, 0, 51, NaN, -----, 0, 0, ---, ---, -----, NaN, ----, -----, ----, W 14.1, N, ---------, ------
09/24/2005 11:37:4.114, 15:38:23.625, 10.6, 1.1, 306, 0, 164.042, 0.3, 0.02, 1, 99, 0, 10, 12, 14, 16, 11, 11, 11, 11, 11, 10, 12, 12, 0, 0, 11.6, 0, 16, -28, 0, -28, 17, 0, 15, 0, 0, 0:0:0, 0:0:00, 0, 0, 322, 1273, 29.6, 0, 0, 51, NaN, -----, 0, 0, ---, ---, -----, NaN, ----, -----, ----, W 14.1, N, ---------, ------
09/24/2005 11:37:5.114, 15:38:24.671875, 10.5, 1.1, 306, 0, 164.042, 0.3, 0.02, 1, 99, 0, 10, 12, 14, 16, 11, 11, 11, 11, 11, 10, 12, 12, 0, 0, 11.6, 0, 16, -28, 0, -28, 17, 0, 15, 0, 0, 0:0:0, 0:0:00, 0, 0, 323, 1273, 29.7, 0, 0, 51, NaN, -----, 0, 0, ---, ---, -----, NaN, ----, -----, ----, W 14.1, N, ---------, ------
09/24/2005 11:37:6.115, 15:38:25.6875, 10.6, 1.1, 306, 0, 164.042, 0.3, 0.02, 1, 99, 0, 10, 12, 14, 16, 11, 11, 11, 11, 11, 10, 12, 12, 0, 0, 11.6, 0, 16, -28, 0, -28, 17, 0, 15, 0, 0, 0:0:0, 0:0:00, 0, 0, 323, 1274, 29.7, 0, 0, 51, NaN, -----, 0, 0, ---, ---, -----, NaN, ----, -----, ----, W 14.1, N, ---------, ------
09/24/2005 11:37:7.115, 15:38:26.6875, 10.5, 1, 306, 0, 164.042, 0.3, 0.02, 1, 99, 0, 10, 12, 14, 16, 11, 11, 11, 11, 11, 10, 12, 12, 0, 0, 11.6, 0, 16, -28, 0, -28, 17, 0, 15, 0, 0, 0:0:0, 0:0:00, 0, 0, 323, 1274, 29.7, 0, 0, 51, NaN, -----, 0, 0, ---, ---, -----, NaN, ----, -----, ----, W 14.1, N, ---------, ------
09/24/2005 11:37:8.116, 15:38:27.6875, 10.4, 1, 306, 0, 164.042, 0.3, 0.02, 1, 99, 0, 10, 12, 14, 16, 11, 11, 11, 11, 11, 10, 12, 12, 0, 0, 11.6, 0, 16, -28, 0, -28, 18, 0, 15, 0, 0, 0:0:0, 0:0:00, 0, 0, 323, 1274, 29.7, 0, 0, 51, NaN, -----, 0, 0, ---, ---, -----, NaN, ----, -----, ----, W 14.1, N, ---------, ------
09/24/2005 11:37:9.116, 15:38:28.703125, 10.4, 1, 306, 0, 160.76116, 0.3, 0.02, 1, 99, 0, 10, 12, 14, 16, 11, 11, 11, 11, 11, 10, 12, 12, 0, 0, 11.6, 0, 16, -28, 0, -28, 17, 0, 15, 0, 0, 0:0:0, 0:0:00, 0, 0, 323, 1274, 29.7, 0, 0, 51, NaN, -----, 0, 0, ---, ---, -----, NaN, ----, -----, ----, W 14.1, N, ---------, ------
09/24/2005 11:37:10.117, 15:38:29.703125, 10.5, 1, 306, 0, 160.76116, 0.3, 0.02, 1, 99, 0, 10, 12, 14, 16, 11, 11, 11, 11, 11, 10, 12, 12, 0, 0, 11.6, 0, 16, -28, 0, -28, 18, 0, 15, 0, 0, 0:0:0, 0:0:00, 0, 0, 323, 1274, 29.7, 0, 0, 52, NaN, -----, 0, 0, ---, ---, -----, NaN, ----, -----, ----, W 14.1, N, ---------, ------
09/24/2005 11:37:11.117, 15:38:30.703125, 10.5, 1, 306, 0, 141.07612, 0.3, 0.02, 1, 99, 0, 10, 12, 14, 16, 11, 11, 11, 11, 11, 10, 12, 12, 0, 0, 11.6, 0, 16, -28, 0, -28, 17, 0, 15, 0, 0, 0:0:0, 0:0:00, 0, 0, 323, 1274, 29.7, 0, 0, 52, NaN, -----, 0, 0, ---, ---, -----, NaN, ----, -----, ----, W 14.1, N, ---------, ------
09/24/2005 11:37:12.118, 15:38:31.703125, 10.4, 1, 306, 0, 131.2336, 0.3, 0.02, 1, 99, 0, 10, 12, 14, 16, 11, 11, 11, 11, 11, 10, 12, 12, 0, 0, 11.6, 0, 16, -28, 0, -28, 18, 0, 15, 0, 0, 0:0:0, 0:0:00, 0, 0, 323, 1274, 29.7, 0, 0, 52, NaN, -----, 0, 0, ---, ---, -----, NaN, ----, -----, ----, W 14.1, N, ---------, ------
09/24/2005 11:37:13.119, 15:38:32.71875, 10.5, 1, 306, 0, 127.95276, 0.3, 0.02, 1, 99, 0, 10, 12, 14, 16, 11, 11, 11, 11, 11, 10, 12, 12, 0, 0, 11.6, 0, 16, -28, 0, -28, 18, 0, 15, 0, 0, 0:0:0, 0:0:00, 0, 0, 324, 1274, 29.7, 0, 0, 52, NaN, -----, 0, 0, ---, ---, -----, NaN, ----, -----, ----, W 14.1, N, ---------, ------
09/24/2005 11:37:14.119, 15:38:33.71875, 10.4, 1, 306, 0, 127.95276, 0.3, 0.02, 1, 99, 0, 10, 12, 14, 16, 11, 11, 11, 11, 11, 10, 12, 12, 0, 0, 11.6, 0, 16, -28, 0, -28, 18, 0, 15, 0, 0, 0:0:0, 0:0:00, 0, 0, 324, 1274, 29.7, 0, 0, 51, NaN, -----, 0, 0, ---, ---, -----, NaN, ----, -----, ----, W 14.1, N, ---------, ------
09/24/2005 11:37:15.120, 15:38:34.71875, 10.4, 1, 306, 0, 127.95276, 0.3, 0.02, 1, 99, 0, 10, 12, 14, 16, 11, 11, 11, 11, 11, 10, 12, 12, 0, 0, 11.6, 0, 16, -28, 0, -28, 18, 0, 15, 0, 0, 0:0:0, 0:0:00, 0, 0, 324, 1274, 29.7, 0, 0, 51, NaN, -----, 0, 0, ---, ---, -----, NaN, ----, -----, ----, W 14.1, N, ---------, ------
09/24/2005 11:37:16.120, 15:38:35.71875, 10.4, 1, 306, 0, 127.95276, 0.3, 0.02, 1, 99, 0, 10, 12, 14, 16, 11, 11, 11, 11, 11, 10, 12, 12, 0, 0, 11.6, 0, 16, -28, 0, -28, 17, 0, 15, 0, 0, 0:0:0, 0:0:00, 0, 0, 324, 1274, 29.7, 0, 0, 52, NaN, -----, 0, 0, ---, ---, -----, NaN, ----, -----, ----, W 14.1, N, ---------, ------
09/24/2005 11:37:17.121, 15:38:36.71875, 10.4, 1, 306, 0, 127.95276, 0.3, 0.02, 1, 99, 0, 10, 12, 14, 16, 11, 11, 11, 11, 11, 10, 12, 12, 0, 0, 11.5, 0, 16, -28, 0, -28, 18, 0, 15, 0, 0, 0:0:0, 0:0:00, 0, 0, 324, 1274, 29.7, 0, 0, 51, NaN, -----, 0, 0, ---, ---, -----, NaN, ----, -----, ----, W 14.1, N, ---------, ------
09/24/2005 11:37:18.121, 15:38:37.71875, 10.5, 1, 306, 0, 127.95276, 0.3, 0.02, 1, 99, 0, 10, 12, 14, 16, 11, 11, 11, 11, 11, 10, 12, 12, 0, 0, 11.6, 0, 16, -28, 0, -28, 18, 0, 15, 0, 0, 0:0:0, 0:0:00, 0, 0, 321, 1274, 29.7, 0, 0, 52, NaN, -----, 0, 0, ---, ---, -----, NaN, ----, -----, ----, W 14.1, N, ---------, ------
09/24/2005 11:37:19.122, 15:38:38.734375, 10.4, 1, 306, 0, 127.95276, 0.3, 0.02, 1, 99, 0, 10, 12, 14, 16, 11, 11, 11, 11, 11, 10, 12, 12, 0, 0, 11.6, 0, 16, -28, 0, -28, 18, 0, 15, 0, 0, 0:0:0, 0:0:00, 0, 0, 321, 1274, 29.7, 0, 0, 52, NaN, -----, 0, 0, ---, ---, -----, NaN, ----, -----, ----, W 14.1, N, ---------, ------
09/24/2005 11:37:20.123, 15:38:39.734375, 10.4, 1, 306, 0, 127.95276, 0.3, 0.02, 1, 99, 0, 10, 12, 14, 16, 11, 11, 11, 11, 11, 10, 12, 12, 0, 0, 11.6, 0, 16, -28, 0, -28, 18, 0, 15, 0, 0, 0:0:0, 0:0:00, 0, 0, 321, 1274, 29.7, 0, 0, 52, NaN, -----, 0, 0, ---, ---, -----, NaN, ----, -----, ----, W 14.1, N, ---------, ------
09/24/2005 11:37:21.123, 15:38:40.734375, 10.4, 1, 306, 0, 127.95276, 0.3, 0.02, 1, 99, 0, 10, 12, 14, 16, 11, 11, 11, 11, 11, 10, 12, 12, 0, 0, 11.6, 0, 16, -28, 0, -28, 18, 0, 15, 0, 0, 0:0:0, 0:0:00, 0, 0, 321, 1274, 29.7, 0, 0, 51, NaN, -----, 0, 0, ---, ---, -----, NaN, ----, -----, ----, W 14.1, N, ---------, ------
09/24/2005 11:37:22.124, 15:38:41.734375, 10.4, 1.1, 306, 0, 127.95276, 0.3, 0.02, 1, 99, 0, 10, 12, 14, 16, 11, 11, 11, 11, 11, 10, 12, 12, 0, 0, 11.6, 0, 16, -28, 0, -28, 18, 0, 15, 0, 0, 0:0:0, 0:0:00, 0, 0, 322, 1274, 29.7, 0, 0, 51, NaN, -----, 0, 0, ---, ---, -----, NaN, ----, -----, ----, W 14.1, N, ---------, ------
09/24/2005 11:37:23.125, 15:38:42.734375, 10.4, 1.1, 306, 0, 127.95276, 0.3, 0.02, 1, 99, 0, 10, 12, 14, 16, 12, 11, 11, 11, 11, 10, 12, 12, 0, 0, 11.6, 0, 16, -28, 0, -28, 18, 0, 15, 0, 0, 0:0:0, 0:0:00, 0, 0, 323, 1274, 29.7, 0, 0, 52, NaN, -----, 0, 0, ---, ---, -----, NaN, ----, -----, ----, W 14.1, N, ---------, ------
09/24/2005 11:37:24.125, 15:38:43.75, 10.4, 1, 306, 0, 127.95276, 0.3, 0.02, 1, 99, 0, 10, 12, 14, 16, 12, 11, 11, 11, 11, 10, 12, 12, 0, 0, 11.6, 0, 16, -28, 0, -28, 18, 0, 15, 0, 0, 0:0:0, 0:0:00, 0, 0, 323, 1274, 29.7, 0, 0, 52, NaN, -----, 0, 0, ---, ---, -----, NaN, ----, -----, ----, W 14.1, N, ---------, ------
09/24/2005 11:37:25.126, 15:38:44.75, 10.4, 1.1, 306, 0, 124.67192, 0.3, 0.02, 1, 99, 0, 10, 12, 14, 16, 12, 11, 11, 11, 11, 10, 12, 12, 0, 0, 11.6, 0, 16, -28, 0, -28, 18, 0, 15, 0, 0, 0:0:0, 0:0:00, 0, 0, 323, 1274, 29.7, 0, 0, 51, NaN, -----, 0, 0, ---, ---, -----, NaN, ----, -----, ----, W 14.1, N, ---------, ------
09/24/2005 11:37:26.127, 15:38:45.765625, 10.4, 1, 306, 0, 124.67192, 0.3, 0.02, 1, 99, 0, 11, 13, 15, 17, 12, 11, 11, 11, 11, 10, 12, 12, 0, 0, 11.6, 0, 17, -28, 0, -28, 17, 0, 15, 0, 0, 0:0:0, 0:0:00, 0, 0, 323, 1275, 29.7, 0, 0, 52, NaN, -----, 0, 0, ---, ---, -----, NaN, ----, -----, ----, W 14.1, N, ---------, ------
09/24/2005 11:37:27.127, 15:38:46.765625, 10.4, 1, 306, 0, 124.67192, 0.3, 0.02, 1, 99, 0, 11, 13, 15, 17, 12, 12, 12, 12, 11, 10, 12, 12, 0, 0, 11.6, 0, 17, -28, 0, -28, 18, 0, 15, 0, 0, 0:0:0, 0:0:00, 0, 0, 323, 1275, 29.7, 0, 0, 51, NaN, -----, 0, 0, ---, ---, -----, NaN, ----, -----, ----, W 14.1, N, ---------, ------
09/24/2005 11:37:28.128, 15:38:47.765625, 10.4, 1.1, 306, 0, 121.39108, 0.3, 0.02, 1, 99, 0, 11, 13, 15, 17, 12, 12, 12, 12, 11, 11, 12, 12, 0, 0, 11.6, 0, 17, -28, 0, -28, 17, 0, 15, 0, 0, 0:0:0, 0:0:00, 0, 0, 318, 1275, 29.7, 0, 0, 51, NaN, -----, 0, 0, ---, ---, -----, NaN, ----, -----, ----, W 14.1, N, ---------, ------
09/24/2005 11:37:29.128, 15:38:48.765625, 10.3, 1.1, 306, 0, 121.39108, 0.3, 0.02, 1, 99, 0, 11, 13, 15, 17, 12, 12, 12, 12, 12, 11, 12, 12, 0, 0, 11.6, 0, 17, -28, 0, -28, 17, 0, 15, 0, 0, 0:0:0, 0:0:00, 0, 0, 320, 1275, 29.7, 0, 0, 52, NaN, -----, 0, 0, ---, ---, -----, NaN, ----, -----, ----, W 14.1, N, ---------, ------
09/24/2005 11:37:30.129, 15:38:49.78125, 10.3, 1, 306, 0, 121.39108, 0.3, 0.02, 1, 99, 0, 11, 13, 15, 17, 12, 12, 12, 12, 12, 11, 12, 12, 0, 0, 11.6, 0, 17, -28, 0, -28, 18, 0, 15, 0, 0, 0:0:0, 0:0:00, 0, 0, 327, 1275, 29.7, 0, 0, 51, NaN, -----, 0, 0, ---, ---, -----, NaN, ----, -----, ----, W 14.1, N, ---------, ------
09/24/2005 11:37:31.137, 15:38:50.78125, 10.3, 1.1, 306, 0, 118.11024, 0.3, 0.02, 1, 99, 0, 11, 13, 15, 17, 12, 12, 12, 12, 12, 11, 12, 12, 0, 0, 11.6, 0, 17, -28, 0, -28, 18, 0, 15, 0, 0, 0:0:0, 0:0:00, 0, 0, 325, 1275, 29.7, 0, 0, 51, NaN, -----, 0, 0, ---, ---, -----, NaN, ----, -----, ----, W 14.1, N, ---------, ------
09/24/2005 11:37:32.137, 15:38:51.78125, 10.3, 1.1, 306, 0, 118.11024, 0.3, 0.02, 1, 99, 0, 11, 13, 15, 17, 12, 12, 12, 12, 12, 11, 12, 12, 0, 0, 11.5, 0, 17, -28, 0, -28, 18, 0, 15, 0, 0, 0:0:0, 0:0:00, 0, 0, 325, 1275, 29.7, 0, 0, 52, NaN, -----, 0, 0, ---, ---, -----, NaN, ----, -----, ----, W 14.1, N, ---------, ------
09/24/2005 11:37:33.138, 15:38:52.796875, 10.3, 1.1, 306, 0, 114.8294, 0.3, 0.02, 1, 99, 0, 11, 13, 15, 17, 12, 12, 12, 12, 12, 11, 12, 12, 0, 0, 11.6, 0, 17, -28, 0, -28, 18, 0, 15, 0, 0, 0:0:0, 0:0:00, 0, 0, 324, 1275, 29.7, 0, 0, 51, NaN, -----, 0, 0, ---, ---, -----, NaN, ----, -----, ----, W 14.1, N, ---------, ------
09/24/2005 11:37:34.139, 15:38:53.546875, 10.2, 1, 306, 0, 114.8294, 0.3, 0.02, 1, 99, 0, 11, 13, 15, 17, 12, 12, 12, 12, 12, 11, 12, 12, 0, 0, 11.6, 0, 17, -28, 0, -28, 18, 0, 15, 0, 0, 0:0:0, 0:0:00, 0, 0, 324, 1275, 29.7, 0, 0, 52, NaN, -----, 0, 0, ---, ---, -----, NaN, ----, -----, ----, W 14.1, N, ---------, ------
09/24/2005 11:37:35.140, 15:38:54.5625, 10.1, 1, 306, 0, 114.8294, 0.3, 0.02, 1, 99, 0, 11, 13, 15, 17, 12, 12, 12, 12, 12, 11, 12, 12, 0, 0, 11.6, 0, 17, -28, 0, -28, 18, 0, 15, 0, 0, 0:0:0, 0:0:00, 0, 0, 324, 1275, 29.7, 0, 0, 52, NaN, -----, 0, 0, ---, ---, -----, NaN, ----, -----, ----, W 14.1, N, ---------, ------
09/24/2005 11:37:36.140, 15:38:55.5625, 10.1, 1, 306, 0, 111.54856, 0.3, 0.02, 1, 99, 0, 11, 13, 15, 17, 12, 12, 12, 12, 12, 11, 12, 12, 0, 0, 11.6, 0, 17, -28, 0, -28, 18, 0, 15, 0, 0, 0:0:0, 0:0:00, 0, 0, 323, 1275, 29.7, 0, 0, 52, NaN, -----, 0, 0, ---, ---, -----, NaN, ----, -----, ----, W 14.1, N, ---------, ------
09/24/2005 11:37:37.141, 15:38:56.5625, 10.1, 0.9, 305, 0, 111.54856, 0.3, 0.02, 1, 99, 0, 11, 13, 15, 17, 12, 12, 12, 12, 12, 11, 12, 12, 0, 0, 11.6, 0, 17, -28, 0, -28, 18, 0, 15, 0, 0, 0:0:0, 0:0:00, 0, 0, 323, 1275, 29.7, 0, 0, 52, NaN, -----, 0, 0, ---, ---, -----, NaN, ----, -----, ----, W 14.1, N, ---------, ------
09/24/2005 11:37:38.141, 15:38:57.5625, 10.1, 0.9, 306, 0, 111.54856, 0.3, 0.02, 1, 99, 0, 11, 13, 15, 17, 12, 12, 12, 12, 12, 11, 12, 12, 0, 0, 11.6, 0, 17, -28, 0, -28, 18, 0, 15, 0, 0, 0:0:0, 0:0:00, 0, 0, 322, 1275, 29.7, 0, 0, 51, NaN, -----, 0, 0, ---, ---, -----, NaN, ----, -----, ----, W 14.1, N, ---------, ------
09/24/2005 11:37:39.142, 15:38:58.703125, 10.1, 0.9, 305, 0, 108.26772, 0.3, 0.02, 1, 99, 0, 11, 13, 15, 17, 12, 12, 12, 12, 12, 11, 12, 12, 0, 0, 11.6, 0, 17, -28, 0, -28, 17, 0, 15, 0, 0, 0:0:0, 0:0:00, 0, 0, 322, 1275, 29.7, 0, 0, 52, NaN, -----, 0, 0, ---, ---, -----, NaN, ----, -----, ----, W 14.1, N, ---------, ------
09/24/2005 11:37:40.143, 15:38:59.703125, 10, 0.9, 305, 0, 108.26772, 0.3, 0.02, 1, 99, 0, 11, 13, 15, 17, 12, 12, 12, 12, 12, 11, 12, 12, 0, 0, 11.6, 0, 17, -28, 0, -28, 17, 0, 15, 0, 0, 0:0:0, 0:0:00, 0, 0, 323, 1275, 29.7, 0, 0, 51, NaN, -----, 0, 0, ---, ---, -----, NaN, ----, -----, ----, W 14.1, N, ---------, ------
09/24/2005 11:37:41.144, 15:39:0.71875, 10.1, 0.9, 305, 0, 108.26772, 0.3, 0.02, 1, 99, 0, 11, 13, 15, 17, 12, 12, 12, 12, 12, 11, 12, 12, 0, 0, 11.6, 0, 17, -28, 0, -28, 17, 0, 15, 0, 0, 0:0:0, 0:0:00, 0, 0, 324, 1275, 29.7, 0, 0, 52, NaN, -----, 0, 0, ---, ---, -----, NaN, ----, -----, ----, W 14.1, N, ---------, ------
09/24/2005 11:37:42.144, 15:39:1.71875, 10.1, 0.9, 305, 0, 108.26772, 0.3, 0.02, 1, 99, 0, 11, 13, 15, 17, 12, 12, 12, 12, 12, 11, 12, 12, 0, 0, 11.6, 0, 17, -28, 0, -28, 17, 0, 15, 0, 0, 0:0:0, 0:0:00, 0, 0, 324, 1275, 29.7, 0, 0, 52, NaN, -----, 0, 0, ---, ---, -----, NaN, ----, -----, ----, W 14.1, N, ---------, ------
09/24/2005 11:37:43.145, 15:39:2.71875, 10, 0.9, 305, 0, 104.98688, 0.3, 0.02, 1, 99, 0, 11, 13, 15, 17, 12, 12, 12, 12, 12, 11, 12, 12, 0, 0, 11.6, 0, 17, -28, 0, -28, 18, 0, 15, 0, 0, 0:0:0, 0:0:00, 0, 0, 324, 1275, 29.7, 0, 0, 52, NaN, -----, 0, 0, ---, ---, -----, NaN, ----, -----, ----, W 14.1, N, ---------, ------
09/24/2005 11:37:44.145, 15:39:3.71875, 10.1, 0.9, 305, 0, 108.26772, 0.3, 0.02, 1, 99, 0, 11, 13, 15, 17, 12, 12, 12, 12, 12, 11, 12, 12, 0, 0, 11.6, 0, 17, -28, 0, -28, 18, 0, 15, 0, 0, 0:0:0, 0:0:00, 0, 0, 324, 1275, 29.7, 0, 0, 51, NaN, -----, 0, 0, ---, ---, -----, NaN, ----, -----, ----, W 14.1, N, ---------, ------
09/24/2005 11:37:45.146, 15:39:4.71875, 10, 0.8, 305, 0, 104.98688, 0.3, 0.02, 1, 99, 0, 11, 13, 15, 17, 12, 12, 12, 12, 12, 11, 12, 12, 0, 0, 11.6, 0, 17, -28, 0, -28, 18, 0, 15, 0, 0, 0:0:0, 0:0:00, 0, 0, 324, 1275, 29.7, 0, 0, 52, NaN, -----, 0, 0, ---, ---, -----, NaN, ----, -----, ----, W 14.1, N, ---------, ------
09/24/2005 11:37:46.147, 15:39:5.71875, 10, 0.9, 305, 0, 104.98688, 0.3, 0.01, 1, 99, 0, 11, 13, 15, 17, 12, 12, 12, 12, 12, 11, 12, 12, 0, 0, 11.6, 0, 17, -28, 0, -28, 18, 0, 15, 0, 0, 0:0:0, 0:0:00, 0, 0, 324, 1275, 29.7, 0, 0, 52, NaN, -----, 0, 0, ---, ---, -----, NaN, ----, -----, ----, W 14.1, N, ---------, ------
09/24/2005 11:37:47.147, 15:39:6.71875, 9.9, 0.9, 305, 0, 104.98688, 0.3, 0.02, 1, 99, 0, 11, 13, 15, 17, 12, 12, 12, 12, 12, 11, 12, 12, 0, 0, 11.6, 0, 17, -28, 0, -28, 17, 0, 15, 0, 0, 0:0:0, 0:0:00, 0, 0, 322, 1275, 29.7, 0, 0, 52, NaN, -----, 0, 0, ---, ---, -----, NaN, ----, -----, ----, W 14.1, N, ---------, ------
09/24/2005 11:37:48.148, 15:39:7.734375, 9.9, 0.9, 305, 0, 104.98688, 0.4, 0.02, 1, 99, 0, 11, 13, 15, 17, 12, 12, 12, 12, 12, 11, 12, 12, 0, 0, 11.6, 0, 17, -28, 0, -28, 17, 0, 15, 0, 0, 0:0:0, 0:0:00, 0, 0, 322, 1275, 29.7, 0, 0, 52, NaN, -----, 0, 0, ---, ---, -----, NaN, ----, -----, ----, W 14.1, N, ---------, ------
09/24/2005 11:37:49.149, 15:39:8.734375, 9.9, 0.9, 305, 0, 104.98688, 0.3, 0.02, 1, 99, 0, 11, 13, 15, 17, 12, 12, 12, 12, 12, 11, 12, 12, 0, 0, 11.6, 0, 17, -28, 0, -28, 17, 0, 15, 0, 0, 0:0:0, 0:0:00, 0, 0, 323, 1275, 29.7, 0, 0, 51, NaN, -----, 0, 0, ---, ---, -----, NaN, ----, -----, ----, W 14.1, N, ---------, ------
09/24/2005 11:37:50.149, 15:39:9.75, 9.9, 0.9, 305, 0, 104.98688, 0.3, 0.02, 1, 99, 0, 11, 13, 15, 17, 12, 12, 12, 12, 12, 11, 12, 12, 0, 0, 11.6, 0, 17, -28, 0, -28, 18, 0, 15, 0, 0, 0:0:0, 0:0:00, 0, 0, 323, 1275, 29.7, 0, 0, 52, NaN, -----, 0, 0, ---, ---, -----, NaN, ----, -----, ----, W 14.1, N, ---------, ------
09/24/2005 11:37:51.150, 15:39:10.765625, 9.9, 0.9, 305, 0, 104.98688, 0.3, 0.02, 1, 99, 0, 11, 13, 15, 17, 12, 12, 12, 12, 12, 11, 12, 12, 0, 0, 11.6, 0, 17, -28, 0, -28, 17, 0, 15, 0, 0, 0:0:0, 0:0:00, 0, 0, 324, 1275, 29.7, 0, 0, 52, NaN, -----, 0, 0, ---, ---, -----, NaN, ----, -----, ----, W 14.1, N, ---------, ------
09/24/2005 11:37:52.151, 15:39:11.765625, 9.8, 0.9, 305, 0, 104.98688, 0.3, 0.02, 1, 99, 0, 11, 13, 15, 17, 12, 12, 12, 12, 12, 11, 12, 12, 0, 0, 11.6, 0, 17, -28, 0, -28, 18, 0, 15, 0, 0, 0:0:0, 0:0:00, 0, 0, 324, 1275, 29.7, 0, 0, 51, NaN, -----, 0, 0, ---, ---, -----, NaN, ----, -----, ----, W 14.1, N, ---------, ------
09/24/2005 11:37:53.151, 15:39:12.765625, 9.8, 0.9, 305, 0, 104.98688, 0.3, 0.02, 1, 99, 0, 11, 13, 15, 17, 12, 12, 12, 12, 12, 11, 12, 12, 0, 0, 11.6, 0, 17, -28, 0, -28, 17, 0, 15, 0, 0, 0:0:0, 0:0:00, 0, 0, 324, 1275, 29.7, 0, 0, 51, NaN, -----, 0, 0, ---, ---, -----, NaN, ----, -----, ----, W 14.1, N, ---------, ------
09/24/2005 11:37:54.152, 15:39:13.765625, 9.8, 0.9, 305, 0, 104.98688, 0.4, 0.02, 1, 99, 0, 11, 13, 15, 17, 12, 12, 12, 12, 12, 11, 12, 12, 0, 0, 11.6, 0, 17, -28, 0, -28, 17, 0, 15, 0, 0, 0:0:0, 0:0:00, 0, 0, 324, 1275, 29.7, 0, 0, 52, NaN, -----, 0, 0, ---, ---, -----, NaN, ----, -----, ----, W 14.1, N, ---------, ------
09/24/2005 11:37:55.152, 15:39:14.78125, 9.8, 0.9, 305, 0, 104.98688, 0.4, 0.02, 1, 99, 0, 12, 14, 16, 18, 12, 12, 12, 12, 12, 11, 12, 12, 0, 0, 11.6, 0, 17, -28, 0, -28, 18, 0, 15, 0, 0, 0:0:0, 0:0:00, 0, 0, 324, 1275, 29.7, 0, 0, 52, NaN, -----, 0, 0, ---, ---, -----, NaN, ----, -----, ----, W 14.1, N, ---------, ------
09/24/2005 11:37:56.153, 15:39:15.78125, 9.8, 0.8, 305, 0, 104.98688, 0.4, 0.02, 1, 99, 0, 12, 14, 16, 18, 12, 12, 12, 12, 12, 11, 12, 12, 0, 0, 11.6, 0, 17, -28, 0, -28, 18, 0, 15, 0, 0, 0:0:0, 0:0:00, 0, 0, 328, 1275, 29.7, 0, 0, 52, NaN, -----, 0, 0, ---, ---, -----, NaN, ----, -----, ----, W 14.1, N, ---------, ------
09/24/2005 11:37:57.153, 15:39:16.78125, 9.8, 0.9, 305, 0, 104.98688, 0.4, 0.02, 1, 99, 0, 12, 14, 16, 18, 12, 12, 12, 12, 12, 11, 12, 12, 0, 0, 11.6, 0, 17, -28, 0, -28, 18, 0, 15, 0, 0, 0:0:0, 0:0:00, 0, 0, 327, 1275, 29.7, 0, 0, 52, NaN, -----, 0, 0, ---, ---, -----, NaN, ----, -----, ----, W 14.1, N, ---------, ------
09/24/2005 11:37:58.154, 15:39:17.796875, 9.8, 0.8, 305, 0, 104.98688, 0.4, 0.02, 1, 99, 0, 12, 14, 16, 18, 12, 12, 12, 12, 12, 11, 12, 12, 0, 0, 11.6, 0, 17, -28, 0, -28, 17, 0, 15, 0, 0, 0:0:0, 0:0:00, 0, 0, 329, 1275, 29.7, 0, 0, 52, NaN, -----, 0, 0, ---, ---, -----, NaN, ----, -----, ----, W 14.1, N, ---------, ------
09/24/2005 11:37:59.157, 15:39:18.796875, 9.8, 0.8, 304, 0, 104.98688, 0.4, 0.02, 1, 99, 0, 12, 14, 16, 18, 12, 12, 12, 12, 12, 11, 12, 12, 0, 0, 11.7, 0, 17, -28, 0, -28, 18, 0, 15, 0, 0, 0:0:0, 0:0:00, 0, 0, 328, 1275, 29.7, 0, 0, 52, NaN, -----, 0, 0, ---, ---, -----, NaN, ----, -----, ----, W 14.1, N, ---------, ------
09/24/2005 11:38:0.158, 15:39:19.828125, 9.8, 0.8, 304, 0, 104.98688, 0.4, 0.02, 1, 99, 0, 12, 14, 16, 18, 12, 12, 12, 12, 12, 11, 12, 12, 0, 0, 11.7, 0, 17, -28, 0, -28, 17, 0, 15, 0, 0, 0:0:0, 0:0:00, 0, 0, 327, 1275, 29.7, 0, 0, 52, NaN, -----, 0, 0, ---, ---, -----, NaN, ----, -----, ----, W 14.1, N, ---------, ------
09/24/2005 11:38:1.159, 15:39:20.828125, 9.7, 0.8, 304, 0, 104.98688, 0.4, 0.02, 1, 99, 0, 12, 14, 16, 18, 12, 12, 12, 12, 12, 11, 12, 12, 0, 0, 11.7, 0, 17, -28, 0, -28, 18, 0, 15, 0, 0, 0:0:0, 0:0:00, 0, 0, 322, 1275, 29.7, 0, 0, 51, NaN, -----, 0, 0, ---, ---, -----, NaN, ----, -----, ----, W 14.1, N, ---------, ------
09/24/2005 11:38:2.162, 15:39:21.828125, 9.7, 0.8, 303, 0, 104.98688, 0.4, 0.02, 1, 99, 0, 12, 14, 16, 18, 12, 12, 12, 12, 12, 11, 12, 12, 0, 0, 11.7, 0, 17, -28, 0, -28, 18, 0, 15, 0, 0, 0:0:0, 0:0:00, 0, 0, 322, 1275, 29.7, 0, 0, 51, NaN, -----, 0, 0, ---, ---, -----, NaN, ----, -----, ----, W 14.1, N, ---------, ------
09/24/2005 11:38:3.172, 15:39:22.828125, 9.6, 0.8, 303, 0, 104.98688, 0.4, 0.02, 1, 99, 0, 12, 14, 16, 18, 12, 12, 12, 12, 12, 11, 12, 12, 0, 0, 11.6, 0, 17, -28, 0, -28, 18, 0, 15, 0, 0, 0:0:0, 0:0:00, 0, 0, 324, 1275, 29.7, 0, 0, 53, NaN, -----, 0, 0, ---, ---, -----, NaN, ----, -----, ----, W 14.1, N, ---------, ------
09/24/2005 11:38:4.173, 15:39:23.921875, 9.6, 0.8, 303, 0, 104.98688, 0.4, 0.02, 1, 99, 0, 12, 14, 16, 18, 12, 12, 12, 12, 12, 11, 12, 12, 0, 0, 11.7, 0, 17, -28, 0, -28, 18, 0, 15, 0, 0, 0:0:0, 0:0:00, 0, 0, 324, 1275, 29.7, 0, 0, 52, NaN, -----, 0, 0, ---, ---, -----, NaN, ----, -----, ----, W 14.1, N, ---------, ------
09/24/2005 11:38:5.174, 15:39:24.921875, 9.6, 0.8, 303, 0, 104.98688, 0.4, 0.01, 1, 99, 0, 12, 14, 16, 18, 12, 12, 12, 12, 12, 11, 12, 12, 0, 0, 11.6, 0, 17, -28, 0, -28, 18, 0, 15, 0, 0, 0:0:0, 0:0:00, 0, 0, 324, 1275, 29.7, 0, 0, 52, NaN, -----, 0, 0, ---, ---, -----, NaN, ----, -----, ----, W 14.1, N, ---------, ------
09/24/2005 11:38:6.174, 15:39:25.921875, 9.6, 0.8, 303, 0, 104.98688, 0.4, 0.02, 1, 99, 0, 12, 14, 16, 18, 12, 12, 12, 12, 12, 11, 12, 12, 0, 0, 11.7, 0, 17, -28, 0, -28, 18, 0, 15, 0, 0, 0:0:0, 0:0:00, 0, 0, 328, 1275, 29.7, 0, 0, 52, NaN, -----, 0, 0, ---, ---, -----, NaN, ----, -----, ----, W 14.1, N, ---------, ------
09/24/2005 11:38:7.175, 15:39:26.9375, 9.6, 0.8, 303, 0, 104.98688, 0.4, 0.02, 1, 99, 0, 12, 14, 16, 18, 12, 12, 12, 12, 12, 11, 12, 12, 0, 0, 11.6, 0, 17, -28, 0, -28, 17, 0, 15, 0, 0, 0:0:0, 0:0:00, 0, 0, 326, 1275, 29.7, 0, 0, 52, NaN, -----, 0, 0, ---, ---, -----, NaN, ----, -----, ----, W 14.1, N, ---------, ------
09/24/2005 11:38:8.177, 15:39:27.9375, 9.6, 0.8, 303, 0, 104.98688, 0.4, 0.01, 1, 99, 0, 12, 14, 16, 18, 12, 12, 12, 12, 12, 11, 12, 12, 0, 0, 11.7, 0, 17, -28, 0, -28, 18, 0, 15, 0, 0, 0:0:0, 0:0:00, 0, 0, 321, 1275, 29.7, 0, 0, 52, NaN, -----, 0, 0, ---, ---, -----, NaN, ----, -----, ----, W 14.1, N, ---------, ------
09/24/2005 11:38:9.181, 15:39:28.9375, 9.6, 0.8, 303, 0, 104.98688, 0.4, 0.02, 1, 99, 0, 12, 14, 16, 18, 12, 12, 12, 12, 12, 11, 12, 12, 0, 0, 11.6, 0, 17, -28, 0, -28, 18, 0, 15, 0, 0, 0:0:0, 0:0:00, 0, 0, 322, 1275, 29.7, 0, 0, 52, NaN, -----, 0, 0, ---, ---, -----, NaN, ----, -----, ----, W 14.1, N, ---------, ------
09/24/2005 11:38:10.183, 15:39:29.9375, 9.6, 0.8, 303, 0, 104.98688, 0.4, 0.01, 1, 99, 0, 12, 14, 16, 18, 12, 12, 12, 12, 12, 11, 12, 12, 0, 0, 11.7, 0, 17, -28, 0, -28, 18, 0, 15, 0, 0, 0:0:0, 0:0:00, 0, 0, 323, 1275, 29.7, 0, 0, 51, NaN, -----, 0, 0, ---, ---, -----, NaN, ----, -----, ----, W 14.1, N, ---------, ------
09/24/2005 11:38:11.184, 15:39:30.9375, 9.6, 0.8, 303, 0, 104.98688, 0.4, 0.01, 1, 99, 0, 12, 14, 16, 18, 12, 12, 12, 12, 12, 11, 12, 12, 0, 0, 11.6, 0, 17, -28, 0, -28, 18, 0, 15, 0, 0, 0:0:0, 0:0:00, 0, 0, 323, 1275, 29.6, 0, 0, 51, NaN, -----, 0, 0, ---, ---, -----, NaN, ----, -----, ----, W 14.1, N, ---------, ------
09/24/2005 11:38:12.186, 15:39:31.9375, 9.6, 0.8, 303, 0, 104.98688, 0.4, 0.02, 1, 99, 0, 12, 14, 16, 18, 12, 12, 12, 12, 12, 11, 12, 12, 0, 0, 11.7, 0, 17, -28, 0, -28, 18, 0, 15, 0, 0, 0:0:0, 0:0:00, 0, 0, 324, 1275, 29.7, 0, 0, 51, NaN, -----, 0, 0, ---, ---, -----, NaN, ----, -----, ----, W 14.1, N, ---------, ------
09/24/2005 11:38:13.196, 15:39:32.953125, 9.6, 0.8, 303, 0, 104.98688, 0.4, 0.01, 1, 99, 0, 12, 14, 16, 18, 12, 12, 12, 12, 12, 11, 12, 12, 0, 0, 11.6, 0, 17, -28, 0, -28, 18, 0, 15, 0, 0, 0:0:0, 0:0:00, 0, 0, 320, 1275, 29.7, 0, 0, 52, NaN, -----, 0, 0, ---, ---, -----, NaN, ----, -----, ----, W 14.1, N, ---------, ------
09/24/2005 11:38:14.197, 15:39:33.953125, 9.6, 0.8, 303, 0, 104.98688, 0.4, 0.02, 1, 99, 0, 12, 14, 16, 18, 12, 12, 12, 12, 12, 11, 12, 12, 0, 0, 11.7, 0, 16, -28, 0, -28, 18, 0, 15, 0, 0, 0:0:0, 0:0:00, 0, 0, 320, 1275, 29.7, 0, 0, 52, NaN, -----, 0, 0, ---, ---, -----, NaN, ----, -----, ----, W 14.1, N, ---------, ------
09/24/2005 11:38:15.200, 15:39:34.953125, 9.6, 0.8, 303, 0, 104.98688, 0.4, 0.01, 1, 99, 0, 12, 14, 16, 18, 12, 12, 12, 12, 12, 11, 12, 12, 0, 0, 11.6, 0, 17, -28, 0, -28, 18, 0, 15, 0, 0, 0:0:0, 0:0:00, 0, 0, 322, 1275, 29.7, 0, 0, 52, NaN, -----, 0, 0, ---, ---, -----, NaN, ----, -----, ----, W 14.1, N, ---------, ------
09/24/2005 11:38:16.201, 15:39:35.953125, 9.6, 0.8, 303, 0, 104.98688, 0.4, 0.01, 1, 99, 0, 12, 14, 16, 18, 12, 12, 12, 12, 12, 11, 12, 12, 0, 0, 11.7, 0, 17, -28, 0, -28, 18, 0, 15, 0, 0, 0:0:0, 0:0:00, 0, 0, 322, 1275, 29.7, 0, 0, 52, NaN, -----, 0, 0, ---, ---, -----, NaN, ----, -----, ----, W 14.1, N, ---------, ------
09/24/2005 11:38:17.202, 15:39:36.953125, 9.6, 0.8, 303, 0, 104.98688, 0.4, 0.01, 1, 99, 0, 12, 14, 16, 18, 12, 12, 12, 12, 12, 11, 12, 12, 0, 0, 11.6, 0, 17, -28, 0, -28, 18, 0, 15, 0, 0, 0:0:0, 0:0:00, 0, 0, 322, 1275, 29.7, 0, 0, 51, NaN, -----, 0, 0, ---, ---, -----, NaN, ----, -----, ----, W 14.1, N, ---------, ------
09/24/2005 11:38:18.214, 15:39:37.953125, 9.5, 0.8, 303, 0, 104.98688, 0.4, 0.01, 1, 99, 0, 12, 14, 16, 18, 12, 12, 12, 12, 12, 11, 12, 12, 0, 0, 11.6, 0, 17, -28, 0, -28, 17, 0, 15, 0, 0, 0:0:0, 0:0:00, 0, 0, 323, 1275, 29.6, 0, 0, 52, NaN, -----, 0, 0, ---, ---, -----, NaN, ----, -----, ----, W 14.1, N, ---------, ------
09/24/2005 11:38:19.216, 15:39:38.953125, 9.6, 0.8, 303, 0, 104.98688, 0.4, 0.01, 1, 99, 0, 12, 14, 16, 18, 12, 12, 12, 12, 12, 11, 12, 12, 0, 0, 11.6, 0, 17, -28, 0, -28, 17, 0, 15, 0, 0, 0:0:0, 0:0:00, 0, 0, 324, 1275, 29.6, 0, 0, 52, NaN, -----, 0, 0, ---, ---, -----, NaN, ----, -----, ----, W 14.1, N, ---------, ------
09/24/2005 11:38:20.216, 15:39:39.96875, 9.6, 0.8, 303, 0, 104.98688, 0.4, 0.01, 1, 99, 0, 12, 14, 16, 18, 12, 12, 12, 12, 12, 11, 12, 12, 0, 0, 11.6, 0, 17, -28, 0, -28, 18, 0, 15, 0, 0, 0:0:0, 0:0:00, 0, 0, 324, 1275, 29.6, 0, 0, 52, NaN, -----, 0, 0, ---, ---, -----, NaN, ----, -----, ----, W 14.1, N, ---------, ------
09/24/2005 11:38:21.217, 15:39:40.96875, 9.5, 0.8, 303, 0, 104.98688, 0.4, 0.01, 1, 99, 0, 12, 14, 16, 18, 12, 12, 12, 12, 12, 11, 12, 12, 0, 0, 11.6, 0, 17, -28, 0, -28, 17, 0, 15, 0, 0, 0:0:0, 0:0:00, 0, 0, 324, 1275, 29.7, 0, 0, 52, NaN, -----, 0, 0, ---, ---, -----, NaN, ----, -----, ----, W 14.1, N, ---------, ------
09/24/2005 11:38:22.218, 15:39:41.96875, 9.5, 0.8, 303, 0, 104.98688, 0.4, 0.01, 1, 99, 0, 12, 14, 16, 18, 12, 12, 12, 12, 12, 11, 12, 12, 0, 0, 11.6, 0, 17, -28, 0, -28, 17, 0, 15, 0, 0, 0:0:0, 0:0:00, 0, 0, 325, 1275, 29.7, 0, 0, 52, NaN, -----, 0, 0, ---, ---, -----, NaN, ----, -----, ----, W 14.1, N, ---------, ------
09/24/2005 11:38:23.235, 15:39:42.96875, 9.5, 0.7, 303, 0, 104.98688, 0.4, 0.01, 1, 99, 0, 12, 14, 16, 18, 12, 12, 12, 12, 12, 11, 12, 12, 0, 0, 11.6, 0, 17, -28, 0, -28, 18, 0, 15, 0, 0, 0:0:0, 0:0:00, 0, 0, 325, 1275, 29.7, 0, 0, 51, NaN, -----, 0, 0, ---, ---, -----, NaN, ----, -----, ----, W 14.1, N, ---------, ------
09/24/2005 11:38:24.236, 15:39:43.96875, 9.6, 0.7, 303, 0, 104.98688, 0.4, 0.01, 1, 99, 0, 12, 14, 16, 18, 12, 12, 12, 12, 12, 11, 12, 12, 0, 0, 11.6, 0, 17, -28, 0, -28, 18, 0, 15, 0, 0, 0:0:0, 0:0:00, 0, 0, 325, 1275, 29.7, 0, 0, 52, NaN, -----, 0, 0, ---, ---, -----, NaN, ----, -----, ----, W 14.1, N, ---------, ------
09/24/2005 11:38:25.236, 15:39:44.984375, 9.6, 0.7, 303, 0, 104.98688, 0.4, 0.01, 1, 99, 0, 12, 14, 16, 18, 12, 12, 12, 12, 12, 11, 12, 12, 0, 0, 11.6, 0, 17, -28, 0, -28, 18, 0, 15, 0, 0, 0:0:0, 0:0:00, 0, 0, 325, 1275, 29.7, 0, 0, 51, NaN, -----, 0, 0, ---, ---, -----, NaN, ----, -----, ----, W 14.1, N, ---------, ------
09/24/2005 11:38:26.237, 15:39:45.984375, 9.5, 0.7, 303, 0, 104.98688, 0.4, 0.01, 1, 99, 0, 12, 14, 16, 18, 12, 12, 12, 12, 12, 11, 12, 12, 0, 0, 11.6, 0, 17, -28, 0, -28, 18, 0, 15, 0, 0, 0:0:0, 0:0:00, 0, 0, 321, 1275, 29.6, 0, 0, 52, NaN, -----, 0, 0, ---, ---, -----, NaN, ----, -----, ----, W 14.1, N, ---------, ------
09/24/2005 11:38:27.241, 15:39:46.984375, 9.6, 0.8, 303, 0, 104.98688, 0.4, 0.01, 1, 99, 0, 12, 14, 16, 18, 12, 12, 12, 12, 12, 11, 12, 12, 0, 0, 11.7, 0, 17, -28, 0, -28, 18, 0, 15, 0, 0, 0:0:0, 0:0:00, 0, 0, 322, 1275, 29.7, 0, 0, 52, NaN, -----, 0, 0, ---, ---, -----, NaN, ----, -----, ----, W 14.1, N, ---------, ------
09/24/2005 11:38:28.246, 15:39:47.984375, 9.5, 0.7, 303, 0, 104.98688, 0.4, 0.01, 1, 99, 0, 12, 14, 16, 18, 12, 12, 12, 12, 12, 11, 12, 12, 0, 0, 11.7, 0, 17, -28, 0, -28, 18, 0, 15, 0, 0, 0:0:0, 0:0:00, 0, 0, 327, 1275, 29.7, 0, 0, 51, NaN, -----, 0, 0, ---, ---, -----, NaN, ----, -----, ----, W 14.1, N, ---------, ------
09/24/2005 11:38:29.247, 15:39:48.984375, 9.5, 0.8, 303, 0, 104.98688, 0.4, 0.02, 1, 99, 0, 12, 14, 16, 18, 12, 12, 12, 12, 12, 11, 12, 12, 0, 0, 11.7, 0, 17, -28, 0, -28, 18, 0, 15, 0, 0, 0:0:0, 0:0:00, 0, 0, 331, 1275, 29.7, 0, 0, 51, NaN, -----, 0, 0, ---, ---, -----, NaN, ----, -----, ----, W 14.1, N, ---------, ------
09/24/2005 11:38:30.257, 15:39:49.984375, 9.5, 0.8, 303, 0, 104.98688, 0.4, 0.01, 1, 99, 0, 12, 14, 16, 18, 12, 12, 12, 12, 12, 11, 12, 12, 0, 0, 11.6, 0, 17, -28, 0, -28, 18, 0, 15, 0, 0, 0:0:0, 0:0:00, 0, 0, 329, 1275, 29.6, 0, 0, 52, NaN, -----, 0, 0, ---, ---, -----, NaN, ----, -----, ----, W 14.1, N, ---------, ------
09/24/2005 11:38:31.261, 15:39:50, 9.5, 0.8, 303, 0, 104.98688, 0.4, 0.01, 1, 99, 0, 12, 14, 16, 18, 12, 12, 12, 12, 12, 11, 12, 12, 0, 0, 11.7, 0, 17, -28, 0, -28, 18, 0, 15, 0, 0, 0:0:0, 0:0:00, 0, 0, 327, 1275, 29.7, 0, 0, 52, NaN, -----, 0, 0, ---, ---, -----, NaN, ----, -----, ----, W 14.1, N, ---------, ------
09/24/2005 11:38:32.262, 15:39:51, 9.5, 0.8, 303, 0, 104.98688, 0.4, 0.01, 1, 99, 0, 12, 14, 16, 18, 12, 12, 12, 12, 12, 11, 12, 12, 0, 0, 11.6, 0, 17, -28, 0, -28, 18, 0, 15, 0, 0, 0:0:0, 0:0:00, 0, 0, 327, 1275, 29.7, 0, 0, 51, NaN, -----, 0, 0, ---, ---, -----, NaN, ----, -----, ----, W 14.1, N, ---------, ------
09/24/2005 11:38:33.263, 15:39:52.015625, 9.5, 0.8, 303, 0, 104.98688, 0.4, 0.01, 1, 99, 0, 12, 14, 16, 18, 12, 12, 12, 12, 12, 11, 12, 12, 0, 0, 11.7, 0, 17, -28, 0, -28, 18, 0, 15, 0, 0, 0:0:0, 0:0:00, 0, 0, 326, 1275, 29.6, 0, 0, 52, NaN, -----, 0, 0, ---, ---, -----, NaN, ----, -----, ----, W 14.1, N, ---------, ------
09/24/2005 11:38:34.270, 15:39:53.015625, 9.5, 0.8, 303, 0, 104.98688, 0.4, 0.01, 1, 99, 0, 12, 14, 16, 18, 12, 12, 12, 12, 12, 11, 12, 12, 0, 0, 11.6, 0, 17, -28, 0, -28, 18, 0, 15, 0, 0, 0:0:0, 0:0:00, 0, 0, 326, 1275, 29.6, 0, 0, 51, NaN, -----, 0, 0, ---, ---, -----, NaN, ----, -----, ----, W 14.1, N, ---------, ------
09/24/2005 11:38:35.276, 15:39:54.015625, 9.5, 0.8, 303, 0, 104.98688, 0.4, 0.01, 1, 99, 0, 12, 14, 16, 18, 12, 12, 12, 12, 12, 11, 12, 12, 0, 0, 11.7, 0, 17, -28, 0, -28, 18, 0, 15, 0, 0, 0:0:0, 0:0:00, 0, 0, 321, 1275, 29.7, 0, 0, 52, NaN, -----, 0, 0, ---, ---, -----, NaN, ----, -----, ----, W 14.1, N, ---------, ------
09/24/2005 11:38:36.276, 15:39:55.015625, 9.5, 0.7, 303, 0, 104.98688, 0.4, 0.01, 1, 99, 0, 12, 14, 16, 18, 12, 12, 12, 12, 12, 11, 12, 12, 0, 0, 11.6, 0, 17, -28, 0, -28, 17, 0, 15, 0, 0, 0:0:0, 0:0:00, 0, 0, 322, 1275, 29.7, 0, 0, 52, NaN, -----, 0, 0, ---, ---, -----, NaN, ----, -----, ----, W 14.1, N, ---------, ------
09/24/2005 11:38:37.277, 15:39:56.015625, 9.6, 0.7, 303, 0, 104.98688, 0.4, 0.01, 1, 99, 0, 12, 14, 16, 18, 12, 12, 12, 12, 12, 11, 12, 12, 0, 0, 11.7, 0, 17, -28, 0, -28, 17, 0, 15, 0, 0, 0:0:0, 0:0:00, 0, 0, 322, 1275, 29.7, 0, 0, 52, NaN, -----, 0, 0, ---, ---, -----, NaN, ----, -----, ----, W 14.1, N, ---------, ------
09/24/2005 11:38:38.380, 15:39:57.03125, 9.6, 0.7, 303, 0, 104.98688, 0.4, 0.01, 1, 99, 0, 12, 14, 16, 18, 12, 12, 12, 12, 12, 11, 12, 12, 0, 0, 11.6, 0, 17, -28, 0, -28, 18, 0, 15, 0, 0, 0:0:0, 0:0:00, 0, 0, 323, 1275, 29.6, 0, 0, 52, NaN, -----, 0, 0, ---, ---, -----, NaN, ----, -----, ----, W 14.1, N, ---------, ------
09/24/2005 11:38:39.380, 15:39:58.03125, 9.6, 0.7, 303, 0, 104.98688, 0.4, 0.01, 1, 99, 0, 12, 14, 16, 18, 12, 12, 12, 12, 12, 11, 12, 12, 0, 0, 11.7, 0, 17, -28, 0, -28, 18, 0, 15, 0, 0, 0:0:0, 0:0:00, 0, 0, 324, 1275, 29.7, 0, 0, 52, NaN, -----, 0, 0, ---, ---, -----, NaN, ----, -----, ----, W 14.1, N, ---------, ------
09/24/2005 11:38:40.381, 15:39:59.03125, 9.6, 0.7, 303, 0, 104.98688, 0.4, 0.01, 1, 99, 0, 12, 14, 16, 18, 12, 12, 12, 12, 12, 11, 12, 12, 0, 0, 11.6, 0, 17, -28, 0, -28, 17, 0, 15, 0, 0, 0:0:0, 0:0:00, 0, 0, 325, 1275, 29.7, 0, 0, 51, NaN, -----, 0, 0, ---, ---, -----, NaN, ----, -----, ----, W 14.1, N, ---------, ------
09/24/2005 11:38:41.382, 15:40:0.03125, 9.6, 0.7, 303, 0, 104.98688, 0.4, 0.01, 1, 99, 0, 12, 14, 16, 18, 12, 12, 12, 12, 12, 11, 12, 12, 0, 0, 11.7, 0, 17, -28, 0, -28, 18, 0, 15, 0, 0, 0:0:0, 0:0:00, 0, 0, 325, 1275, 29.7, 0, 0, 51, NaN, -----, 0, 0, ---, ---, -----, NaN, ----, -----, ----, W 14.1, N, ---------, ------
09/24/2005 11:38:42.383, 15:40:1.03125, 9.6, 0.7, 303, 0, 104.98688, 0.4, 0.01, 1, 99, 0, 12, 14, 16, 18, 12, 12, 12, 12, 12, 11, 12, 12, 0, 0, 11.6, 0, 17, -28, 0, -28, 18, 0, 15, 0, 0, 0:0:0, 0:0:00, 0, 0, 325, 1275, 29.7, 0, 0, 52, NaN, -----, 0, 0, ---, ---, -----, NaN, ----, -----, ----, W 14.1, N, ---------, ------
09/24/2005 11:38:43.394, 15:40:3.046875, 9.6, 0.8, 303, 0, 104.98688, 0.4, 0.01, 1, 99, 0, 12, 14, 16, 18, 12, 12, 12, 12, 12, 11, 12, 12, 0, 0, 11.7, 0, 17, -28, 0, -28, 18, 0, 15, 0, 0, 0:0:0, 0:0:00, 0, 0, 320, 1275, 29.7, 0, 0, 51, NaN, -----, 0, 0, ---, ---, -----, NaN, ----, -----, ----, W 14.1, N, ---------, ------
09/24/2005 11:38:44.396, 15:40:4.046875, 9.6, 0.8, 303, 0, 104.98688, 0.4, 0.01, 1, 99, 0, 12, 14, 16, 18, 12, 12, 12, 12, 12, 11, 12, 12, 0, 0, 11.6, 0, 17, -28, 0, -28, 18, 0, 15, 0, 0, 0:0:0, 0:0:00, 0, 0, 317, 1275, 29.7, 0, 0, 52, NaN, -----, 0, 0, ---, ---, -----, NaN, ----, -----, ----, W 14.1, N, ---------, ------
09/24/2005 11:38:45.399, 15:40:4.046875, 9.6, 0.7, 303, 0, 104.98688, 0.4, 0.01, 1, 99, 0, 12, 14, 16, 18, 12, 12, 12, 12, 12, 11, 12, 12, 0, 0, 11.8, 0, 17, -28, 0, -28, 17, 0, 15, 0, 0, 0:0:0, 0:0:00, 0, 0, 318, 1275, 29.6, 0, 0, 52, NaN, -----, 0, 0, ---, ---, -----, NaN, ----, -----, ----, W 14.1, N, ---------, ------
09/24/2005 11:38:46.405, 15:40:5.046875, 9.6, 0.7, 303, 0, 104.98688, 0.4, 0.01, 1, 99, 0, 12, 14, 16, 18, 12, 12, 12, 12, 12, 11, 12, 12, 0, 0, 11.7, 0, 17, -28, 0, -28, 18, 0, 15, 0, 0, 0:0:0, 0:0:00, 0, 0, 319, 1275, 29.7, 0, 0, 52, NaN, -----, 0, 0, ---, ---, -----, NaN, ----, -----, ----, W 14.1, N, ---------, ------
09/24/2005 11:38:47.411, 15:40:6.0625, 9.6, 0.7, 303, 0, 104.98688, 0.4, 0.01, 1, 99, 0, 12, 14, 16, 18, 12, 12, 12, 12, 12, 11, 12, 12, 0, 0, 11.7, 0, 17, -28, 0, -28, 17, 0, 15, 0, 0, 0:0:0, 0:0:00, 0, 0, 321, 1275, 29.7, 0, 0, 52, NaN, -----, 0, 0, ---, ---, -----, NaN, ----, -----, ----, W 14.1, N, ---------, ------
09/24/2005 11:38:48.419, 15:40:8.0625, 9.5, 0.7, 303, 0, 104.98688, 0.4, 0.01, 1, 99, 0, 12, 14, 16, 18, 12, 12, 12, 12, 12, 11, 12, 12, 0, 0, 11.6, 0, 17, -28, 0, -28, 17, 0, 15, 0, 0, 0:0:0, 0:0:00, 0, 0, 322, 1275, 29.7, 0, 0, 51, NaN, -----, 0, 0, ---, ---, -----, NaN, ----, -----, ----, W 14.1, N, ---------, ------
09/24/2005 11:38:49.423, 15:40:9.0625, 9.5, 0.7, 303, 0, 104.98688, 0.4, 0.01, 1, 99, 0, 12, 14, 16, 18, 12, 12, 12, 12, 12, 11, 12, 12, 0, 0, 11.7, 0, 17, -28, 0, -28, 18, 0, 15, 0, 0, 0:0:0, 0:0:00, 0, 0, 322, 1275, 29.7, 0, 0, 51, NaN, -----, 0, 0, ---, ---, -----, NaN, ----, -----, ----, W 14.1, N, ---------, ------
09/24/2005 11:38:50.424, 15:40:9.0625, 9.5, 0.7, 303, 0, 104.98688, 0.4, 0.01, 1, 99, 0, 12, 14, 16, 18, 12, 12, 12, 12, 12, 11, 12, 12, 0, 0, 11.6, 0, 17, -28, 0, -28, 17, 0, 15, 0, 0, 0:0:0, 0:0:00, 0, 0, 323, 1275, 29.7, 0, 0, 52, NaN, -----, 0, 0, ---, ---, -----, NaN, ----, -----, ----, W 14.1, N, ---------, ------
09/24/2005 11:38:51.425, 15:40:10.0625, 9.5, 0.7, 303, 0, 104.98688, 0.4, 0.01, 1, 99, 0, 12, 14, 16, 18, 12, 12, 12, 12, 12, 11, 12, 12, 0, 0, 11.7, 0, 17, -28, 0, -28, 18, 0, 15, 0, 0, 0:0:0, 0:0:00, 0, 0, 323, 1275, 29.7, 0, 0, 52, NaN, -----, 0, 0, ---, ---, -----, NaN, ----, -----, ----, W 14.1, N, ---------, ------
09/24/2005 11:38:52.425, 15:40:11.0625, 9.5, 0.7, 303, 0, 104.98688, 0.4, 0.01, 1, 99, 0, 12, 14, 16, 18, 12, 12, 12, 12, 12, 11, 12, 12, 0, 0, 11.6, 0, 17, -28, 0, -28, 18, 0, 15, 0, 0, 0:0:0, 0:0:00, 0, 0, 323, 1275, 29.7, 0, 0, 52, NaN, -----, 0, 0, ---, ---, -----, NaN, ----, -----, ----, W 14.1, N, ---------, ------
09/24/2005 11:38:53.427, 15:40:13.0625, 9.5, 0.7, 303, 0, 104.98688, 0.4, 0.01, 1, 99, 0, 12, 14, 16, 18, 12, 12, 12, 12, 12, 11, 12, 12, 0, 0, 11.6, 0, 17, -28, 0, -28, 18, 0, 15, 0, 0, 0:0:0, 0:0:00, 0, 0, 323, 1275, 29.7, 0, 0, 51, NaN, -----, 0, 0, ---, ---, -----, NaN, ----, -----, ----, W 14.1, N, ---------, ------
09/24/2005 11:38:54.431, 15:40:14.078125, 9.6, 0.8, 303, 0, 104.98688, 0.4, 0.01, 1, 99, 0, 12, 14, 16, 18, 12, 12, 12, 12, 12, 11, 12, 12, 0, 0, 11.6, 0, 17, -28, 0, -28, 18, 0, 15, 0, 0, 0:0:0, 0:0:00, 0, 0, 323, 1275, 29.7, 0, 0, 52, NaN, -----, 0, 0, ---, ---, -----, NaN, ----, -----, ----, W 14.1, N, ---------, ------
09/24/2005 11:38:55.441, 15:40:14.078125, 9.6, 0.8, 303, 0, 104.98688, 0.4, 0.02, 1, 99, 0, 12, 14, 16, 18, 12, 12, 12, 12, 12, 11, 12, 12, 0, 0, 11.7, 0, 17, -28, 0, -28, 18, 0, 15, 0, 0, 0:0:0, 0:0:00, 0, 0, 323, 1275, 29.7, 0, 0, 51, NaN, -----, 0, 0, ---, ---, -----, NaN, ----, -----, ----, W 14.1, N, ---------, ------
09/24/2005 11:38:56.442, 15:40:15.078125, 9.6, 0.8, 303, 0, 104.98688, 0.4, 0.01, 1, 99, 0, 12, 14, 16, 18, 12, 12, 12, 12, 12, 11, 12, 12, 0, 0, 11.6, 0, 17, -28, 0, -28, 18, 0, 15, 0, 0, 0:0:0, 0:0:00, 0, 0, 323, 1275, 29.7, 0, 0, 52, NaN, -----, 0, 0, ---, ---, -----, NaN, ----, -----, ----, W 14.1, N, ---------, ------
09/24/2005 11:38:57.443, 15:40:16.078125, 9.6, 0.8, 303, 0, 104.98688, 0.4, 0.01, 1, 99, 0, 12, 14, 16, 18, 12, 12, 12, 12, 12, 11, 12, 12, 0, 0, 11.7, 0, 17, -28, 0, -28, 17, 0, 15, 0, 0, 0:0:0, 0:0:00, 0, 0, 322, 1275, 29.6, 0, 0, 51, NaN, -----, 0, 0, ---, ---, -----, NaN, ----, -----, ----, W 14.1, N, ---------, ------
09/24/2005 11:38:58.450, 15:40:18.140625, 9.5, 0.7, 303, 0, 104.98688, 0.4, 0.01, 1, 99, 0, 12, 14, 16, 18, 12, 12, 12, 12, 12, 11, 12, 12, 0, 0, 11.6, 0, 17, -28, 0, -28, 17, 0, 15, 0, 0, 0:0:0, 0:0:00, 0, 0, 322, 1275, 29.7, 0, 0, 52, NaN, -----, 0, 0, ---, ---, -----, NaN, ----, -----, ----, W 14.1, N, ---------, ------
09/24/2005 11:38:59.463, 15:40:19.140625, 9.6, 0.8, 303, 0, 104.98688, 0.4, 0.02, 1, 99, 0, 12, 14, 16, 18, 12, 12, 12, 12, 12, 11, 12, 12, 0, 0, 11.7, 0, 17, -28, 0, -28, 18, 0, 15, 0, 0, 0:0:0, 0:0:00, 0, 0, 323, 1275, 29.7, 0, 0, 51, NaN, -----, 0, 0, ---, ---, -----, NaN, ----, -----, ----, W 14.1, N, ---------, ------
09/24/2005 11:39:0.467, 15:40:20.171875, 9.6, 0.7, 303, 0, 104.98688, 0.4, 0.02, 1, 99, 0, 12, 14, 16, 18, 12, 12, 12, 12, 12, 11, 12, 12, 0, 0, 11.6, 0, 17, -28, 0, -28, 17, 0, 15, 0, 0, 0:0:0, 0:0:00, 0, 0, 323, 1275, 29.6, 0, 0, 51, NaN, -----, 0, 0, ---, ---, -----, NaN, ----, -----, ----, W 14.1, N, ---------, ------
09/24/2005 11:39:1.471, 15:40:21.171875, 9.6, 0.8, 303, 0, 104.98688, 0.4, 0.01, 1, 99, 0, 12, 14, 16, 18, 12, 12, 12, 12, 12, 11, 12, 12, 0, 0, 11.7, 0, 17, -28, 0, -28, 17, 0, 15, 0, 0, 0:0:0, 0:0:00, 0, 0, 324, 1275, 29.7, 0, 0, 52, NaN, -----, 0, 0, ---, ---, -----, NaN, ----, -----, ----, W 14.1, N, ---------, ------
09/24/2005 11:39:2.482, 15:40:22.171875, 9.6, 0.8, 303, 0, 104.98688, 0.4, 0.02, 1, 99, 0, 12, 14, 16, 18, 12, 12, 12, 12, 12, 11, 12, 12, 0, 0, 11.6, 0, 17, -28, 0, -28, 18, 0, 15, 0, 0, 0:0:0, 0:0:00, 0, 0, 324, 1275, 29.7, 0, 0, 52, NaN, -----, 0, 0, ---, ---, -----, NaN, ----, -----, ----, W 14.1, N, ---------, ------
09/24/2005 11:39:3.482, 15:40:23.1875, 9.6, 0.8, 303, 0, 104.98688, 0.4, 0.02, 1, 99, 0, 12, 14, 16, 18, 12, 12, 12, 12, 12, 11, 12, 12, 0, 0, 11.7, 0, 17, -28, 0, -28, 18, 0, 15, 0, 0, 0:0:0, 0:0:00, 0, 0, 324, 1275, 29.7, 0, 0, 51, NaN, -----, 0, 0, ---, ---, -----, NaN, ----, -----, ----, W 14.1, N, ---------, ------
09/24/2005 11:39:4.483, 15:40:24.1875, 9.5, 0.8, 303, 0, 104.98688, 0.4, 0.02, 1, 99, 0, 12, 14, 16, 18, 12, 12, 12, 12, 12, 11, 12, 12, 0, 0, 11.6, 0, 17, -28, 0, -28, 18, 0, 15, 0, 0, 0:0:0, 0:0:00, 0, 0, 324, 1275, 29.7, 0, 0, 52, NaN, -----, 0, 0, ---, ---, -----, NaN, ----, -----, ----, W 14.1, N, ---------, ------
09/24/2005 11:39:5.484, 15:40:25.1875, 9.5, 0.8, 303, 0, 104.98688, 0.4, 0.01, 1, 99, 0, 12, 14, 16, 18, 12, 12, 12, 12, 12, 11, 12, 12, 0, 0, 11.7, 0, 17, -28, 0, -28, 17, 0, 15, 0, 0, 0:0:0, 0:0:00, 0, 0, 328, 1275, 29.7, 0, 0, 51, NaN, -----, 0, 0, ---, ---, -----, NaN, ----, -----, ----, W 14.1, N, ---------, ------
09/24/2005 11:39:6.486, 15:40:26.203125, 9.5, 0.8, 303, 0, 104.98688, 0.4, 0.01, 1, 99, 0, 12, 14, 16, 18, 12, 12, 12, 12, 12, 11, 12, 12, 0, 0, 11.6, 0, 17, -28, 0, -28, 18, 0, 15, 0, 0, 0:0:0, 0:0:00, 0, 0, 327, 1275, 29.7, 0, 0, 52, NaN, -----, 0, 0, ---, ---, -----, NaN, ----, -----, ----, W 14.1, N, ---------, ------
09/24/2005 11:39:7.487, 15:40:27.203125, 9.6, 0.8, 303, 0, 104.98688, 0.4, 0.02, 1, 99, 0, 12, 14, 16, 18, 12, 12, 12, 12, 12, 11, 12, 12, 0, 0, 11.7, 0, 17, -28, 0, -28, 18, 0, 15, 0, 0, 0:0:0, 0:0:00, 0, 0, 330, 1275, 29.7, 0, 0, 52, NaN, -----, 0, 0, ---, ---, -----, NaN, ----, -----, ----, W 14.1, N, ---------, ------
09/24/2005 11:39:8.488, 15:40:28.203125, 9.5, 0.8, 303, 0, 104.98688, 0.4, 0.01, 1, 99, 0, 12, 14, 16, 18, 12, 12, 12, 12, 12, 11, 12, 12, 0, 0, 11.6, 0, 17, -28, 0, -28, 18, 0, 15, 0, 0, 0:0:0, 0:0:00, 0, 0, 329, 1275, 29.7, 0, 0, 52, NaN, -----, 0, 0, ---, ---, -----, NaN, ----, -----, ----, W 14.1, N, ---------, ------
09/24/2005 11:39:9.489, 15:40:29.21875, 9.5, 0.8, 303, 0, 104.98688, 0.4, 0.01, 1, 99, 0, 12, 14, 16, 18, 12, 12, 12, 12, 12, 11, 12, 12, 0, 0, 11.6, 0, 17, -28, 0, -28, 18, 0, 15, 0, 0, 0:0:0, 0:0:00, 0, 0, 327, 1275, 29.6, 0, 0, 51, NaN, -----, 0, 0, ---, ---, -----, NaN, ----, -----, ----, W 14.1, N, ---------, ------
09/24/2005 11:39:10.489, 15:40:30.21875, 9.5, 0.8, 303, 0, 104.98688, 0.4, 0.02, 1, 99, 0, 12, 14, 16, 18, 12, 12, 12, 12, 12, 11, 12, 12, 0, 0, 11.6, 0, 17, -28, 0, -28, 18, 0, 15, 0, 0, 0:0:0, 0:0:00, 0, 0, 327, 1275, 29.6, 0, 0, 52, NaN, -----, 0, 0, ---, ---, -----, NaN, ----, -----, ----, W 14.1, N, ---------, ------
09/24/2005 11:39:11.490, 15:40:31.21875, 9.6, 0.8, 303, 0, 104.98688, 0.4, 0.01, 1, 99, 0, 12, 14, 16, 18, 12, 12, 12, 12, 12, 11, 12, 12, 0, 0, 11.6, 0, 17, -28, 0, -28, 18, 0, 15, 0, 0, 0:0:0, 0:0:00, 0, 0, 326, 1275, 29.7, 0, 0, 51, NaN, -----, 0, 0, ---, ---, -----, NaN, ----, -----, ----, W 14.1, N, ---------, ------
09/24/2005 11:39:12.491, 15:40:32.21875, 9.5, 0.8, 303, 0, 104.98688, 0.4, 0.01, 1, 99, 0, 12, 14, 16, 18, 12, 12, 12, 12, 12, 11, 12, 12, 0, 0, 11.6, 0, 17, -28, 0, -28, 17, 0, 15, 0, 0, 0:0:0, 0:0:00, 0, 0, 330, 1275, 29.7, 0, 0, 52, NaN, -----, 0, 0, ---, ---, -----, NaN, ----, -----, ----, W 14.1, N, ---------, ------
09/24/2005 11:39:13.491, 15:40:33.21875, 9.6, 0.8, 303, 0, 104.98688, 0.4, 0.02, 1, 99, 0, 12, 14, 16, 18, 12, 12, 12, 12, 12, 11, 12, 12, 0, 0, 11.6, 0, 17, -28, 0, -28, 18, 0, 15, 0, 0, 0:0:0, 0:0:00, 0, 0, 329, 1275, 29.6, 0, 0, 52, NaN, -----, 0, 0, ---, ---, -----, NaN, ----, -----, ----, W 14.1, N, ---------, ------
09/24/2005 11:39:14.493, 15:40:34.21875, 9.6, 0.8, 303, 0, 104.98688, 0.4, 0.01, 1, 99, 0, 12, 14, 16, 18, 12, 12, 12, 12, 12, 11, 12, 12, 0, 0, 11.6, 0, 17, -28, 0, -28, 18, 0, 15, 0, 0, 0:0:0, 0:0:00, 0, 0, 326, 1275, 29.6, 0, 0, 52, NaN, -----, 0, 0, ---, ---, -----, NaN, ----, -----, ----, W 14.1, N, ---------, ------
09/24/2005 11:39:15.498, 15:40:35.21875, 9.5, 0.8, 303, 0, 104.98688, 0.4, 0.01, 1, 99, 0, 12, 14, 16, 18, 12, 12, 12, 12, 12, 11, 12, 12, 0, 0, 11.7, 0, 17, -28, 0, -28, 18, 0, 15, 0, 0, 0:0:0, 0:0:00, 0, 0, 326, 1275, 29.7, 0, 0, 51, NaN, -----, 0, 0, ---, ---, -----, NaN, ----, -----, ----, W 14.1, N, ---------, ------
09/24/2005 11:39:16.499, 15:40:36.234375, 9.6, 0.8, 303, 0, 104.98688, 0.4, 0.02, 1, 99, 0, 12, 14, 16, 18, 12, 12, 12, 12, 12, 11, 12, 12, 0, 0, 11.6, 0, 17, -28, 0, -28, 18, 0, 15, 0, 0, 0:0:0, 0:0:00, 0, 0, 325, 1275, 29.7, 0, 0, 52, NaN, -----, 0, 0, ---, ---, -----, NaN, ----, -----, ----, W 14.1, N, ---------, ------
09/24/2005 11:39:17.506, 15:40:37.234375, 9.6, 0.8, 303, 0, 104.98688, 0.4, 0.02, 1, 99, 0, 12, 14, 16, 18, 12, 12, 12, 12, 12, 11, 12, 12, 0, 0, 11.7, 0, 17, -28, 0, -28, 18, 0, 15, 0, 0, 0:0:0, 0:0:00, 0, 0, 324, 1275, 29.7, 0, 0, 52, NaN, -----, 0, 0, ---, ---, -----, NaN, ----, -----, ----, W 14.1, N, ---------, ------
09/24/2005 11:39:18.506, 15:40:38.234375, 9.5, 0.8, 303, 0, 104.98688, 0.4, 0.02, 1, 99, 0, 12, 14, 16, 18, 12, 12, 12, 12, 12, 11, 12, 12, 0, 0, 11.6, 0, 17, -28, 0, -28, 18, 0, 15, 0, 0, 0:0:0, 0:0:00, 0, 0, 324, 1275, 29.7, 0, 0, 52, NaN, -----, 0, 0, ---, ---, -----, NaN, ----, -----, ----, W 14.1, N, ---------, ------
09/24/2005 11:39:19.513, 15:40:39.234375, 9.5, 0.8, 303, 0, 104.98688, 0.5, 0.02, 1, 99, 0, 12, 14, 16, 18, 12, 12, 12, 12, 12, 11, 12, 12, 0, 0, 11.7, 0, 17, -28, 0, -28, 18, 0, 15, 0, 0, 0:0:0, 0:0:00, 0, 0, 324, 1275, 29.7, 0, 0, 52, NaN, -----, 0, 0, ---, ---, -----, NaN, ----, -----, ----, W 14.1, N, ---------, ------
09/24/2005 11:39:20.518, 15:40:40.234375, 9.5, 0.8, 303, 0, 104.98688, 0.4, 0.02, 1, 99, 0, 12, 14, 16, 18, 12, 12, 12, 12, 12, 11, 12, 12, 0, 0, 11.6, 0, 17, -28, 0, -28, 17, 0, 15, 0, 0, 0:0:0, 0:0:00, 0, 0, 320, 1275, 29.7, 0, 0, 52, NaN, -----, 0, 0, ---, ---, -----, NaN, ----, -----, ----, W 14.1, N, ---------, ------
09/24/2005 11:39:21.520, 15:40:41.25, 9.6, 0.8, 303, 0, 104.98688, 0.4, 0.01, 1, 99, 0, 12, 14, 16, 18, 12, 12, 12, 12, 12, 11, 12, 12, 0, 0, 11.7, 0, 17, -28, 0, -28, 18, 0, 15, 0, 0, 0:0:0, 0:0:00, 0, 0, 320, 1275, 29.7, 0, 0, 52, NaN, -----, 0, 0, ---, ---, -----, NaN, ----, -----, ----, W 14.1, N, ---------, ------
09/24/2005 11:39:22.529, 15:40:42.25, 9.6, 0.8, 303, 0, 104.98688, 0.4, 0.01, 1, 99, 0, 12, 14, 16, 18, 12, 12, 12, 12, 12, 11, 12, 12, 0, 0, 11.6, 0, 17, -28, 0, -28, 18, 0, 15, 0, 0, 0:0:0, 0:0:00, 0, 0, 322, 1275, 29.7, 0, 0, 52, NaN, -----, 0, 0, ---, ---, -----, NaN, ----, -----, ----, W 14.1, N, ---------, ------
09/24/2005 11:39:23.529, 15:40:43.25, 9.6, 0.8, 303, 0, 104.98688, 0.4, 0.02, 1, 99, 0, 12, 14, 16, 18, 12, 12, 12, 12, 12, 11, 12, 12, 0, 0, 11.6, 0, 17, -28, 0, -28, 17, 0, 15, 0, 0, 0:0:0, 0:0:00, 0, 0, 323, 1275, 29.7, 0, 0, 51, NaN, -----, 0, 0, ---, ---, -----, NaN, ----, -----, ----, W 14.1, N, ---------, ------
09/24/2005 11:39:24.536, 15:40:44.265625, 9.6, 0.8, 303, 0, 104.98688, 0.4, 0.01, 1, 99, 0, 12, 14, 16, 18, 12, 12, 12, 12, 12, 11, 12, 12, 0, 0, 11.6, 0, 17, -28, 0, -28, 18, 0, 15, 0, 0, 0:0:0, 0:0:00, 0, 0, 323, 1275, 29.7, 0, 0, 52, NaN, -----, 0, 0, ---, ---, -----, NaN, ----, -----, ----, W 14.1, N, ---------, ------
09/24/2005 11:39:25.539, 15:40:45.265625, 9.6, 0.8, 303, 0, 104.98688, 0.4, 0.02, 1, 99, 0, 12, 14, 16, 18, 12, 12, 12, 12, 12, 11, 12, 12, 0, 0, 11.7, 0, 17, -28, 0, -28, 18, 0, 15, 0, 0, 0:0:0, 0:0:00, 0, 0, 323, 1275, 29.7, 0, 0, 51, NaN, -----, 0, 0, ---, ---, -----, NaN, ----, -----, ----, W 14.1, N, ---------, ------
09/24/2005 11:39:26.540, 15:40:46.265625, 9.6, 0.8, 303, 0, 104.98688, 0.4, 0.02, 1, 99, 0, 12, 14, 16, 18, 12, 12, 12, 12, 12, 11, 12, 12, 0, 0, 11.6, 0, 17, -28, 0, -28, 17, 0, 15, 0, 0, 0:0:0, 0:0:00, 0, 0, 323, 1275, 29.6, 0, 0, 52, NaN, -----, 0, 0, ---, ---, -----, NaN, ----, -----, ----, W 14.1, N, ---------, ------
09/24/2005 11:39:27.546, 15:40:47.265625, 9.7, 0.8, 303, 0, 104.98688, 0.4, 0.02, 1, 99, 0, 12, 14, 16, 18, 12, 12, 12, 12, 12, 11, 12, 12, 0, 0, 11.7, 0, 17, -28, 0, -28, 18, 0, 15, 0, 0, 0:0:0, 0:0:00, 0, 0, 329, 1275, 29.7, 0, 0, 51, NaN, -----, 0, 0, ---, ---, -----, NaN, ----, -----, ----, W 14.1, N, ---------, ------
09/24/2005 11:39:28.547, 15:40:48.28125, 9.6, 0.8, 303, 0, 104.98688, 0.4, 0.01, 1, 99, 0, 12, 14, 16, 18, 12, 12, 12, 12, 12, 11, 12, 12, 0, 0, 11.6, 0, 17, -28, 0, -28, 18, 0, 15, 0, 0, 0:0:0, 0:0:00, 0, 0, 322, 1275, 29.7, 0, 0, 51, NaN, -----, 0, 0, ---, ---, -----, NaN, ----, -----, ----, W 14.1, N, ---------, ------
09/24/2005 11:39:29.557, 15:40:49.28125, 9.7, 0.8, 303, 0, 104.98688, 0.4, 0.02, 1, 99, 0, 12, 14, 16, 18, 12, 12, 12, 12, 12, 11, 12, 12, 0, 0, 11.7, 0, 17, -28, 0, -28, 18, 0, 15, 0, 0, 0:0:0, 0:0:00, 0, 0, 322, 1275, 29.7, 0, 0, 51, NaN, -----, 0, 0, ---, ---, -----, NaN, ----, -----, ----, W 14.1, N, ---------, ------
09/24/2005 11:39:30.558, 15:40:50.28125, 9.7, 0.8, 303, 0, 104.98688, 0.4, 0.01, 1, 99, 0, 12, 14, 16, 18, 12, 12, 12, 12, 12, 11, 12, 12, 0, 0, 11.6, 0, 17, -28, 0, -28, 18, 0, 15, 0, 0, 0:0:0, 0:0:00, 0, 0, 323, 1275, 29.7, 0, 0, 52, NaN, 00336, 45.2528333333333, 75.5821666666667, 014, 000, -----, NaN, ----, -----, ----, W 14.1, N, ---------, ------
09/24/2005 11:39:31.562, 15:40:51.28125, 9.8, 0.8, 303, 0, 104.98688, 0.4, 0.01, 1, 99, 0, 12, 14, 16, 18, 12, 12, 12, 12, 12, 11, 12, 12, 0, 0, 11.7, 0, 17, -28, 0, -28, 18, 0, 15, 0, 0, 0:0:0, 0:0:00, 0, 0, 328, 1275, 29.7, 0, 0, 52, NaN, 00336, 45.253, 75.582, 014, 000, -----, NaN, ----, -----, ----, W 14.1, N, ---------, ------
09/24/2005 11:39:32.563, 15:40:52.28125, 9.7, 0.8, 303, 0, 104.98688, 0.4, 0.01, 1, 99, 0, 12, 14, 16, 18, 12, 12, 12, 12, 12, 11, 12, 12, 0, 0, 11.6, 0, 17, -28, 0, -28, 18, 0, 15, 0, 0, 0:0:0, 0:0:00, 0, 0, 327, 1275, 29.6, 0, 0, 52, NaN, 00336, 45.253, 75.582, 014, 000, -----, NaN, ----, -----, ----, W 14.1, N, ---------, ------
09/24/2005 11:39:33.563, 15:40:53.296875, 9.7, 0.8, 303, 0, 104.98688, 0.4, 0.01, 1, 99, 0, 12, 14, 16, 18, 12, 12, 12, 12, 12, 11, 12, 12, 0, 0, 11.6, 0, 17, -28, 0, -28, 18, 0, 15, 0, 0, 0:0:0, 0:0:00, 0, 0, 332, 1275, 29.7, 0, 0, 51, NaN, 00336, 45.253, 75.582, 014, 000, -----, NaN, ----, -----, ----, W 14.1, N, ---------, ------
09/24/2005 11:39:34.564, 15:40:54.296875, 9.7, 0.8, 303, 0, 104.98688, 0.4, 0.01, 1, 99, 0, 12, 14, 16, 18, 12, 12, 12, 12, 12, 11, 12, 12, 0, 0, 11.6, 0, 18, -28, 0, -28, 18, 0, 15, 0, 0, 0:0:0, 0:0:00, 0, 0, 332, 1275, 29.7, 0, 0, 51, NaN, 00336, 45.253, 75.582, 014, 000, -----, NaN, ----, -----, ----, W 14.1, N, ---------, ------
09/24/2005 11:39:35.564, 15:40:55.296875, 9.7, 0.8, 303, 0, 104.98688, 0.4, 0.01, 1, 99, 0, 12, 14, 16, 18, 13, 12, 12, 12, 12, 11, 12, 12, 0, 0, 11.6, 0, 17, -28, 0, -28, 18, 0, 15, 0, 0, 0:0:0, 0:0:00, 0, 0, 329, 1275, 29.6, 0, 0, 52, NaN, 00336, 45.253, 75.582, 014, 000, -----, NaN, ----, -----, ----, W 14.1, N, ---------, ------
09/24/2005 11:39:36.567, 15:40:56.3125, 9.7, 0.8, 303, 0, 104.98688, 0.4, 0.01, 1, 99, 0, 12, 14, 16, 18, 13, 12, 12, 12, 12, 11, 12, 13, 0, 0, 11.6, 0, 18, -28, 0, -28, 18, 0, 15, 0, 0, 0:0:0, 0:0:00, 0, 0, 327, 1275, 29.7, 0, 0, 52, NaN, 00336, 45.253, 75.582, 014, 000, -----, NaN, ----, -----, ----, W 14.1, N, ---------, ------
09/24/2005 11:39:37.570, 15:40:57.3125, 9.8, 0.9, 304, 0, 104.98688, 0.4, 0.01, 1, 99, 0, 12, 14, 16, 18, 13, 12, 12, 12, 12, 11, 12, 13, 0, 0, 11.6, 0, 17, -28, 0, -28, 18, 0, 15, 0, 0, 0:0:0, 0:0:00, 0, 0, 327, 1275, 29.6, 0, 0, 52, NaN, 00336, 45.253, 75.582, 014, 000, -----, NaN, ----, -----, ----, W 14.1, N, ---------, ------
09/24/2005 11:39:38.571, 15:40:58.3125, 9.7, 0.9, 304, 0, 104.98688, 0.4, 0.01, 1, 99, 0, 12, 14, 16, 18, 13, 12, 12, 12, 12, 11, 12, 13, 0, 0, 11.6, 0, 18, -28, 0, -28, 18, 0, 15, 0, 0, 0:0:0, 0:0:00, 0, 0, 322, 1275, 29.7, 0, 0, 52, NaN, 00336, 45.253, 75.582, 014, 000, -----, NaN, ----, -----, ----, W 14.1, N, ---------, ------
09/24/2005 11:39:39.575, 15:40:59.3125, 9.8, 0.9, 304, 0, 104.98688, 0.4, 0.01, 1, 99, 0, 12, 14, 16, 18, 13, 12, 12, 12, 12, 11, 12, 13, 0, 0, 11.6, 0, 18, -28, 0, -28, 18, 0, 15, 0, 0, 0:0:0, 0:0:00, 0, 0, 319, 1275, 29.7, 0, 0, 51, NaN, 00336, 45.253, 75.582, 014, 000, -----, NaN, ----, -----, ----, W 14.1, N, ---------, ------
09/24/2005 11:39:40.578, 15:41:0.3125, 9.7, 0.9, 304, 0, 104.98688, 0.4, 0.01, 1, 99, 0, 12, 14, 16, 18, 13, 12, 12, 12, 12, 11, 12, 13, 0, 0, 11.6, 0, 18, -28, 0, -28, 18, 0, 15, 0, 0, 0:0:0, 0:0:00, 0, 0, 324, 1275, 29.6, 0, 0, 52, NaN, 00336, 45.253, 75.582, 014, 000, -----, NaN, ----, -----, ----, W 14.1, N, ---------, ------
